{"type":"FeatureCollection","features":[{"type":"Feature","properties":{"id":"0086a3c9-90ef-4816-ba14-bb37ce3ec958","name":"Innerdal Turisthytte","dnt_cabin":false,"service_level":"staffed","htgt":{"public_transport_available":false,"boat_transport_available":false,"car_all_year":false,"car_summer":false},"accessabilities":[],"facilities":["swimming","heater","food service","wc","fireplace","shower","phone","water","drying room","220v"]},"geometry":{"type":"Point","coordinates":[8.7743,62.72178]}},{"type":"Feature","properties":{"id":"00df0698-6e80-4d05-a74e-d00cb8c053d6","name":"Heimly Pensjonat","dnt_cabin":false,"service_level":"staffed","htgt":{"public_transport_available":false,"boat_transport_available":false,"car_all_year":false,"car_summer":false},"accessabilities":[],"facilities":[]},"geometry":{"type":"Point","coordinates":[7.12123,60.86004]}},{"type":"Feature","properties":{"id":"017e4893-2716-4704-b827-44b483e603dc","name":"Garsjøkoia (kodelås)","dnt_cabin":true,"service_level":"no-service","htgt":{"public_transport_available":false,"boat_transport_available":false,"car_all_year":false,"car_summer":false},"accessabilities":[],"facilities":["boat","wood stove","oven"]},"geometry":{"type":"Point","coordinates":[10.11556667,59.82180279]}},{"type":"Feature","properties":{"id":"018f1023-7331-46b7-bc8c-73d89607a2da","name":"Hovinkoia","dnt_cabin":true,"service_level":"no-service","htgt":{"public_transport_available":false,"boat_transport_available":false,"car_all_year":false,"car_summer":false},"accessabilities":[],"facilities":["swimming","fishing","wood stove","canoe","water","tent site"]},"geometry":{"type":"Point","coordinates":[10.0156105766744,60.1318395509178]}},{"type":"Feature","properties":{"id":"0198a00b-07d7-4a6a-8748-8cbd1dc19375","name":"Båthuset","dnt_cabin":false,"service_level":"no-service","htgt":{"public_transport_available":false,"boat_transport_available":false,"car_all_year":false,"car_summer":true},"accessabilities":[],"facilities":[]},"geometry":{"type":"Point","coordinates":[10.5212,59.69291]}},{"type":"Feature","properties":{"id":"019da5bc-18a6-40ae-b9d1-e57054b413c8","name":"Kuonjarjoki","dnt_cabin":false,"service_level":"no-service","htgt":{"public_transport_available":false,"boat_transport_available":false,"car_all_year":false,"car_summer":false},"accessabilities":[],"facilities":["wood stove"]},"geometry":{"type":"Point","coordinates":[21.207535,69.102205]}},{"type":"Feature","properties":{"id":"01f15ecb-cb3f-426c-b9eb-e149c9aaa552","name":"Vålådalen Fjällstation","dnt_cabin":false,"service_level":"staffed","htgt":{"public_transport_available":false,"boat_transport_available":false,"car_all_year":false,"car_summer":false},"accessabilities":[],"facilities":[]},"geometry":{"type":"Point","coordinates":[12.96507154,63.1485426]}},{"type":"Feature","properties":{"id":"027a50ea-0b5e-4213-bb37-4a25be5f9352","name":"Gullsteinvollen","dnt_cabin":true,"service_level":"self-service","htgt":{"public_transport_available":false,"boat_transport_available":false,"car_all_year":false,"car_summer":false},"accessabilities":[],"facilities":["fishing","swimming","wood stove","water","mobile coverage"]},"geometry":{"type":"Point","coordinates":[8.1071011,63.1908595]}},{"type":"Feature","properties":{"id":"0282408c-c30e-4f1d-b021-b872371946bb","name":"Nyckelvattnskyddet","dnt_cabin":false,"service_level":"emergency shelter","htgt":{"public_transport_available":false,"boat_transport_available":false,"car_all_year":false,"car_summer":false},"accessabilities":[],"facilities":["fishing","swimming"]},"geometry":{"type":"Point","coordinates":[12.563434548026,60.3493179156261]}},{"type":"Feature","properties":{"id":"029a92a4-9ea7-4e5e-86ab-1db5878dd632","name":"Ljøsnåvollen","dnt_cabin":false,"service_level":"staffed","htgt":{"public_transport_available":false,"boat_transport_available":false,"car_all_year":false,"car_summer":false},"accessabilities":[],"facilities":["local food","wood stove"]},"geometry":{"type":"Point","coordinates":[11.9839539976318,62.4946051050169]}},{"type":"Feature","properties":{"id":"032c411f-3fa0-4b5b-877c-f15e0b4f1c86","name":"Sorjushytta","dnt_cabin":true,"service_level":"no-service","htgt":{"public_transport_available":false,"boat_transport_available":false,"car_all_year":false,"car_summer":false},"accessabilities":[],"facilities":["swimming","fishing","12v","wood stove"]},"geometry":{"type":"Point","coordinates":[16.2554323376027,67.2070325255488]}},{"type":"Feature","properties":{"id":"0478b39d-8e35-4ac2-b050-c910d5118a01","name":"Halvorsenhytta","dnt_cabin":true,"service_level":"no-service","htgt":{"public_transport_available":true,"boat_transport_available":false,"car_all_year":false,"car_summer":false},"accessabilities":[],"facilities":["220v"]},"geometry":{"type":"Point","coordinates":[10.39055,59.8709]}},{"type":"Feature","properties":{"id":"04847ea4-e101-4923-a329-309228d12788","name":"Torfinnsbu","dnt_cabin":true,"service_level":"self-service","htgt":{"public_transport_available":true,"boat_transport_available":true,"car_all_year":false,"car_summer":false},"accessabilities":[],"facilities":["mobile coverage","drying room","water","tent site","wood stove","oven"]},"geometry":{"type":"Point","coordinates":[8.59556498455878,61.3561954421245]}},{"type":"Feature","properties":{"id":"049ad1e8-6743-40ac-a311-2e1e311efe9d","name":"Mårbu Seter og Fjellstue","dnt_cabin":false,"service_level":"staffed","htgt":{"public_transport_available":true,"boat_transport_available":true,"car_all_year":false,"car_summer":false},"accessabilities":[],"facilities":["fishing","swimming","local food","wood stove","boat","drying room","rental","shower","water","fireplace","tent site","phone","wc","credit card payment","220v","mobile coverage","food service"]},"geometry":{"type":"Point","coordinates":[8.16548,60.1894]}},{"type":"Feature","properties":{"id":"04d47d72-1b8f-4410-bf29-1b696a528849","name":"Rondane Fjellstue","dnt_cabin":false,"service_level":"staffed","htgt":{"public_transport_available":true,"boat_transport_available":false,"car_all_year":false,"car_summer":false},"accessabilities":[],"facilities":["mobile coverage","shower","drying room","water","220v","heater","fireplace","wc","phone","credit card payment"]},"geometry":{"type":"Point","coordinates":[9.68533,61.81145]}},{"type":"Feature","properties":{"id":"05637bb5-5bbe-4e4c-9284-d904f23465a3","name":"Grimsbu  turistsenter Motell & Camp","dnt_cabin":false,"service_level":"staffed","htgt":{"public_transport_available":false,"boat_transport_available":false,"car_all_year":false,"car_summer":false},"accessabilities":[],"facilities":[]},"geometry":{"type":"Point","coordinates":[10.17183,62.15561]}},{"type":"Feature","properties":{"id":"057451aa-3cd0-4ac1-ad15-9091ddcb860e","name":"Suolovuopmi Fjellstue","dnt_cabin":false,"service_level":"staffed","htgt":{"public_transport_available":false,"boat_transport_available":false,"car_all_year":false,"car_summer":false},"accessabilities":[],"facilities":[]},"geometry":{"type":"Point","coordinates":[23.5271142240351,69.5859330767396]}},{"type":"Feature","properties":{"id":"058749d6-01e9-45a5-a6cb-8e00a346fb7c","name":"Høgrondbue","dnt_cabin":true,"service_level":"emergency shelter","htgt":{"public_transport_available":false,"boat_transport_available":false,"car_all_year":false,"car_summer":false},"accessabilities":[],"facilities":[]},"geometry":{"type":"Point","coordinates":[9.912,61.938]}},{"type":"Feature","properties":{"id":"058caed2-851d-4b67-a8d3-be7389d53012","name":"Ramssjøen","dnt_cabin":true,"service_level":"emergency shelter","htgt":{"public_transport_available":false,"boat_transport_available":false,"car_all_year":false,"car_summer":false},"accessabilities":[],"facilities":["fishing","wood stove"]},"geometry":{"type":"Point","coordinates":[9.80512377029603,62.8173752366483]}},{"type":"Feature","properties":{"id":"05969bd6-1984-4866-941e-37055cbd6dd0","name":"Mårbu","dnt_cabin":true,"service_level":"staffed","htgt":{"public_transport_available":false,"boat_transport_available":true,"car_all_year":false,"car_summer":false},"accessabilities":[],"facilities":["fishing","swimming","local food","credit card payment","boat","mobile coverage","shower","water","drying room"]},"geometry":{"type":"Point","coordinates":[8.17114879385243,60.1857645499585]}},{"type":"Feature","properties":{"id":"05b38eef-e59f-4f61-997b-0d0ba9189cf2","name":"Sveinsbu","dnt_cabin":true,"service_level":"no-service","htgt":{"public_transport_available":false,"boat_transport_available":false,"car_all_year":false,"car_summer":false},"accessabilities":[],"facilities":["swimming","wood stove","12v"]},"geometry":{"type":"Point","coordinates":[9.52354718011894,59.540552815782]}},{"type":"Feature","properties":{"id":"05fc21b5-8884-4316-8734-a05bd75aba91","name":"Smedmyrkoia","dnt_cabin":true,"service_level":"no-service","htgt":{"public_transport_available":false,"boat_transport_available":false,"car_all_year":false,"car_summer":false},"accessabilities":[],"facilities":["fishing","swimming","wood stove"]},"geometry":{"type":"Point","coordinates":[10.550020989925,60.0516706607775]}},{"type":"Feature","properties":{"id":"061332ab-8053-4be3-8ea6-816150bff687","name":"Glittervassbu","dnt_cabin":false,"service_level":"no-service","htgt":{"public_transport_available":false,"boat_transport_available":false,"car_all_year":false,"car_summer":false},"accessabilities":[],"facilities":[]},"geometry":{"type":"Point","coordinates":[7.7825203250774,61.9586529043493]}},{"type":"Feature","properties":{"id":"0644a906-beba-4af0-96ae-04b03209a180","name":"Tomashelleren","dnt_cabin":true,"service_level":"self-service","htgt":{"public_transport_available":false,"boat_transport_available":false,"car_all_year":false,"car_summer":false},"accessabilities":[],"facilities":["fishing","mobile coverage","wood stove"]},"geometry":{"type":"Point","coordinates":[8.53245638122192,61.2354883879626]}},{"type":"Feature","properties":{"id":"06458895-6d33-45ec-9637-ee3bb4fd3bbc","name":"Staloluokta Fjällstuga","dnt_cabin":false,"service_level":"self-service","htgt":{"public_transport_available":false,"boat_transport_available":false,"car_all_year":false,"car_summer":false},"accessabilities":[],"facilities":[]},"geometry":{"type":"Point","coordinates":[16.696,67.31885]}},{"type":"Feature","properties":{"id":"065949e3-2065-4e98-90c1-b927174fdaa7","name":"Væktarstua Hotell","dnt_cabin":false,"service_level":"staffed","htgt":{"public_transport_available":false,"boat_transport_available":false,"car_all_year":false,"car_summer":false},"accessabilities":[],"facilities":[]},"geometry":{"type":"Point","coordinates":[11.8935227177463,62.9072042719101]}},{"type":"Feature","properties":{"id":"069c0a13-faa0-4807-a302-f2a9c5eff006","name":"Selfjordhytta","dnt_cabin":true,"service_level":"no-service","htgt":{"public_transport_available":false,"boat_transport_available":false,"car_all_year":false,"car_summer":true},"accessabilities":[],"facilities":["wood stove","heater","fireplace","oven","220v"]},"geometry":{"type":"Point","coordinates":[13.0741131100163,68.0363775582657]}},{"type":"Feature","properties":{"id":"06a3ffa6-47dc-420f-bf16-c9bf7f579fae","name":"Midtfjell","dnt_cabin":false,"service_level":"no-service","htgt":{"public_transport_available":false,"boat_transport_available":false,"car_all_year":false,"car_summer":false},"accessabilities":[],"facilities":[]},"geometry":{"type":"Point","coordinates":[11.7433,59.4878]}},{"type":"Feature","properties":{"id":"0712c51c-a5c7-4fb0-807f-bc7a71161968","name":"Åmotdalshytta","dnt_cabin":true,"service_level":"self-service","htgt":{"public_transport_available":false,"boat_transport_available":false,"car_all_year":false,"car_summer":false},"accessabilities":[],"facilities":["wood stove"]},"geometry":{"type":"Point","coordinates":[9.19745186890834,62.3592445472625]}},{"type":"Feature","properties":{"id":"075df2ee-698e-4680-946d-9a3da1bcab56","name":"Jørgenhytta","dnt_cabin":true,"service_level":"no-service","htgt":{"public_transport_available":false,"boat_transport_available":false,"car_all_year":false,"car_summer":false},"accessabilities":[],"facilities":["food service","wood stove"]},"geometry":{"type":"Point","coordinates":[10.32393,60.02018]}},{"type":"Feature","properties":{"id":"07f7a219-87d6-424e-944b-98dd3e0edf8c","name":"Bjørneggen","dnt_cabin":true,"service_level":"self-service","htgt":{"public_transport_available":false,"boat_transport_available":false,"car_all_year":true,"car_summer":false},"accessabilities":[],"facilities":["swimming","220v","wood stove","shower","water","drying room"]},"geometry":{"type":"Point","coordinates":[11.8056902181681,63.2732283762015]}},{"type":"Feature","properties":{"id":"0820c935-a5a3-4d03-9dce-608f1ca6b2a9","name":"Tänndalen Vandrarhem","dnt_cabin":false,"service_level":"staffed","htgt":{"public_transport_available":false,"boat_transport_available":false,"car_all_year":true,"car_summer":false},"accessabilities":[],"facilities":["credit card payment","shower","wc","water","220v","phone","heater","mobile coverage"]},"geometry":{"type":"Point","coordinates":[12.44926657,62.54578399]}},{"type":"Feature","properties":{"id":"08317b44-10d4-45ab-9811-42fa3754c89d","name":"Buvasskoia","dnt_cabin":true,"service_level":"no-service","htgt":{"public_transport_available":false,"boat_transport_available":false,"car_all_year":false,"car_summer":false},"accessabilities":[],"facilities":["swimming","fishing","tent site","boat","wood stove","canoe","12v"]},"geometry":{"type":"Point","coordinates":[9.77543253509401,60.4068507035675]}},{"type":"Feature","properties":{"id":"089b985d-6cd5-4bc2-9973-42e6b78f79ac","name":"Rogen Fjällstuga","dnt_cabin":false,"service_level":"self-service","htgt":{"public_transport_available":false,"boat_transport_available":false,"car_all_year":false,"car_summer":false},"accessabilities":[],"facilities":["fishing","swimming","canoe","sauna"]},"geometry":{"type":"Point","coordinates":[12.44915566,62.31705728]}},{"type":"Feature","properties":{"id":"08f819b8-d16d-4590-b0b3-39b6cbda3bfa","name":"Ljungdalen Vandrarhem","dnt_cabin":false,"service_level":"staffed","htgt":{"public_transport_available":false,"boat_transport_available":false,"car_all_year":false,"car_summer":false},"accessabilities":[],"facilities":[]},"geometry":{"type":"Point","coordinates":[12.78945289,62.85102592]}},{"type":"Feature","properties":{"id":"09572dd4-eac1-4696-9e1e-5ec0961a0c1f","name":"Koie ved Masterud","dnt_cabin":false,"service_level":"no-service","htgt":{"public_transport_available":false,"boat_transport_available":false,"car_all_year":false,"car_summer":false},"accessabilities":[],"facilities":["rental"]},"geometry":{"type":"Point","coordinates":[12.2977858313714,60.1417385724652]}},{"type":"Feature","properties":{"id":"09c2e624-c2fc-44b9-9a70-c1e159b886bb","name":"Finnskogen kro og motell","dnt_cabin":false,"service_level":"staffed","htgt":{"public_transport_available":true,"boat_transport_available":false,"car_all_year":true,"car_summer":false},"accessabilities":[],"facilities":["wc","water","220v","phone","heater","food service","shower"]},"geometry":{"type":"Point","coordinates":[12.4016,60.41787]}},{"type":"Feature","properties":{"id":"09cdc0af-8651-403d-a569-bf51d2fa3b7f","name":"Litle Aurådal","dnt_cabin":true,"service_level":"self-service","htgt":{"public_transport_available":false,"boat_transport_available":false,"car_all_year":false,"car_summer":false},"accessabilities":[],"facilities":[]},"geometry":{"type":"Point","coordinates":[6.877,59.188]}},{"type":"Feature","properties":{"id":"09f036a7-eca8-4084-8a5d-9bb5cada8b28","name":"Myrsetra","dnt_cabin":true,"service_level":"no-service","htgt":{"public_transport_available":false,"boat_transport_available":false,"car_all_year":false,"car_summer":false},"accessabilities":[],"facilities":["fishing","wood stove","tent site"]},"geometry":{"type":"Point","coordinates":[10.4125459140775,60.0326058104331]}},{"type":"Feature","properties":{"id":"0a05bc04-4cde-419c-80dc-4403433540e0","name":"Raudsjødalen","dnt_cabin":true,"service_level":"self-service","htgt":{"public_transport_available":false,"boat_transport_available":false,"car_all_year":false,"car_summer":true},"accessabilities":[],"facilities":["wood stove"]},"geometry":{"type":"Point","coordinates":[11.1503578789361,62.2151573558319]}},{"type":"Feature","properties":{"id":"0a0f7aef-79c6-4c3e-9474-d13a90386999","name":"Kalvedalshytta","dnt_cabin":true,"service_level":"self-service","htgt":{"public_transport_available":false,"boat_transport_available":false,"car_all_year":false,"car_summer":false},"accessabilities":[],"facilities":["fishing","swimming","boat","wood stove","canoe"]},"geometry":{"type":"Point","coordinates":[5.48894088703408,60.7676506649977]}},{"type":"Feature","properties":{"id":"0a1babf8-0f48-4368-a785-f91ea6fbedd9","name":"Toveseter","dnt_cabin":true,"service_level":"no-service","htgt":{"public_transport_available":false,"boat_transport_available":false,"car_all_year":false,"car_summer":false},"accessabilities":[],"facilities":["wood stove","mobile coverage"]},"geometry":{"type":"Point","coordinates":[9.32239011547501,60.3387097276136]}},{"type":"Feature","properties":{"id":"0a25ebb6-987e-4704-9c12-1387f98ccb23","name":"Sildevika","dnt_cabin":true,"service_level":"no-service","htgt":{"public_transport_available":false,"boat_transport_available":false,"car_all_year":false,"car_summer":false},"accessabilities":[],"facilities":["fishing","swimming","220v","mobile coverage","heater","boat","rental","tent site","oven"]},"geometry":{"type":"Point","coordinates":[9.76093699094891,59.0496750566989]}},{"type":"Feature","properties":{"id":"0a2b7d86-1eff-4926-a8a4-b76ca9256aab","name":"Skistua","dnt_cabin":false,"service_level":"food service","htgt":{"public_transport_available":false,"boat_transport_available":false,"car_all_year":false,"car_summer":false},"accessabilities":[],"facilities":[]},"geometry":{"type":"Point","coordinates":[10.2614243244679,63.4175518203959]}},{"type":"Feature","properties":{"id":"0a596da7-2370-46c4-a7e9-43637d2917a6","name":"Allmannstua","dnt_cabin":false,"service_level":"food service","htgt":{"public_transport_available":false,"boat_transport_available":false,"car_all_year":false,"car_summer":false},"accessabilities":[],"facilities":["food service"]},"geometry":{"type":"Point","coordinates":[10.73721,62.11745]}},{"type":"Feature","properties":{"id":"0ab85a86-dc40-4d49-9ceb-ef5d20d0384d","name":"Kvipt Gjestegard","dnt_cabin":false,"service_level":"staffed","htgt":{"public_transport_available":false,"boat_transport_available":false,"car_all_year":false,"car_summer":false},"accessabilities":[],"facilities":[]},"geometry":{"type":"Point","coordinates":[7.92367615664729,59.0640850425326]}},{"type":"Feature","properties":{"id":"0acef82e-36e1-45ff-a590-aacce07e5d5b","name":"Haugseter fjellstue ","dnt_cabin":false,"service_level":"staffed","htgt":{"public_transport_available":false,"boat_transport_available":false,"car_all_year":false,"car_summer":true},"accessabilities":[],"facilities":["fishing","swimming","local food","12v","220v","water","shower","boat","food service","mobile coverage","drying room","phone","wood stove","heater","wc","sauna","credit card payment","fireplace"]},"geometry":{"type":"Point","coordinates":[8.98414319076423,61.3410068206742]}},{"type":"Feature","properties":{"id":"0b0863c0-3e20-44b3-9906-0b831a964450","name":"Fleischer's Hotel","dnt_cabin":false,"service_level":"staffed","htgt":{"public_transport_available":false,"boat_transport_available":false,"car_all_year":false,"car_summer":false},"accessabilities":[],"facilities":[]},"geometry":{"type":"Point","coordinates":[6.40885,60.62883]}},{"type":"Feature","properties":{"id":"0b53c84c-a5df-4a81-9ffa-392dfd656e23","name":"Lysebu","dnt_cabin":false,"service_level":"staffed","htgt":{"public_transport_available":false,"boat_transport_available":false,"car_all_year":false,"car_summer":false},"accessabilities":[],"facilities":[]},"geometry":{"type":"Point","coordinates":[10.65182,59.97817]}},{"type":"Feature","properties":{"id":"0b7e0f25-840c-4ebd-be94-6e29d5bc0bcc","name":"Nystuen Hotel","dnt_cabin":false,"service_level":"staffed","htgt":{"public_transport_available":false,"boat_transport_available":false,"car_all_year":false,"car_summer":false},"accessabilities":[],"facilities":[]},"geometry":{"type":"Point","coordinates":[8.16662,61.18046]}},{"type":"Feature","properties":{"id":"0ba95f51-0340-44c6-b1ae-3159bc881c5e","name":"Trulsbu","dnt_cabin":true,"service_level":"self-service","htgt":{"public_transport_available":false,"boat_transport_available":false,"car_all_year":false,"car_summer":false},"accessabilities":[],"facilities":["wood stove"]},"geometry":{"type":"Point","coordinates":[7.93782058468067,61.7388362603387]}},{"type":"Feature","properties":{"id":"0c777ec0-744e-4348-b311-e3f6c66b5c3e","name":"Heibergtunet Storevatn","dnt_cabin":true,"service_level":"self-service","htgt":{"public_transport_available":false,"boat_transport_available":false,"car_all_year":false,"car_summer":false},"accessabilities":[],"facilities":["12v","tent site","wood stove","swimming","fishing"]},"geometry":{"type":"Point","coordinates":[7.02208031940604,59.1478128462254]}},{"type":"Feature","properties":{"id":"0cb42966-fab4-4b55-a90e-d2b13a46dff1","name":"Svelvikstrømmen","dnt_cabin":false,"service_level":"no-service","htgt":{"public_transport_available":true,"boat_transport_available":false,"car_all_year":true,"car_summer":false},"accessabilities":[],"facilities":["220v","mobile coverage","water","rental","oven","shower","wc","booking"]},"geometry":{"type":"Point","coordinates":[10.40933,59.62047]}},{"type":"Feature","properties":{"id":"0ce24e99-0443-4474-bfed-896734fbb672","name":"Gammelhuset i Skipsfjorden","dnt_cabin":true,"service_level":"no-service","htgt":{"public_transport_available":true,"boat_transport_available":false,"car_all_year":false,"car_summer":false},"accessabilities":[],"facilities":["swimming","fishing","credit card payment","wood stove","220v","tent site","heater","oven","mobile coverage"]},"geometry":{"type":"Point","coordinates":[19.80553,70.16872]}},{"type":"Feature","properties":{"id":"0d628e89-f118-4957-a18f-45267fa0a918","name":"Flotsberget","dnt_cabin":true,"service_level":"no-service","htgt":{"public_transport_available":false,"boat_transport_available":false,"car_all_year":false,"car_summer":false},"accessabilities":[],"facilities":["wood stove"]},"geometry":{"type":"Point","coordinates":[11.84245,60.833389]}},{"type":"Feature","properties":{"id":"0d6d31b7-8c6c-4ac5-b535-a1fa9be42c68","name":"Käringsjön","dnt_cabin":false,"service_level":"no-service","htgt":{"public_transport_available":false,"boat_transport_available":false,"car_all_year":false,"car_summer":false},"accessabilities":[],"facilities":[]},"geometry":{"type":"Point","coordinates":[12.470656,62.354281]}},{"type":"Feature","properties":{"id":"0d9932a8-c6eb-4fa2-a72a-b13b315b9f43","name":"Andorsjøhytta","dnt_cabin":false,"service_level":"no-service","htgt":{"public_transport_available":false,"boat_transport_available":false,"car_all_year":false,"car_summer":false},"accessabilities":[],"facilities":["boat","12v","wood stove"]},"geometry":{"type":"Point","coordinates":[12.86316298,64.28098094]}},{"type":"Feature","properties":{"id":"0da2013a-0397-471a-ade4-49e936e531ab","name":"Presteseter","dnt_cabin":true,"service_level":"no-service","htgt":{"public_transport_available":false,"boat_transport_available":false,"car_all_year":false,"car_summer":true},"accessabilities":[],"facilities":["rental"]},"geometry":{"type":"Point","coordinates":[9.79257432003822,59.4341476986014]}},{"type":"Feature","properties":{"id":"0db0dc38-3097-4175-8dba-353d3895283f","name":"Osa-bu Fisketjøn","dnt_cabin":false,"service_level":"staffed","htgt":{"public_transport_available":false,"boat_transport_available":false,"car_all_year":false,"car_summer":false},"accessabilities":[],"facilities":[]},"geometry":{"type":"Point","coordinates":[6.52668,59.49511]}},{"type":"Feature","properties":{"id":"0e836625-9a29-4673-9949-2f012d579e65","name":"Sletten Fjellgard","dnt_cabin":false,"service_level":"closed","htgt":{"public_transport_available":false,"boat_transport_available":false,"car_all_year":false,"car_summer":false},"accessabilities":[],"facilities":[]},"geometry":{"type":"Point","coordinates":[9.75818,62.18981]}},{"type":"Feature","properties":{"id":"0eeda607-2f6c-43c7-8b5a-b57fd8538a52","name":"Vannfjordhytta","dnt_cabin":true,"service_level":"emergency shelter","htgt":{"public_transport_available":false,"boat_transport_available":false,"car_all_year":false,"car_summer":false},"accessabilities":[],"facilities":["fishing","wood stove"]},"geometry":{"type":"Point","coordinates":[25.5875615920911,71.0291854623685]}},{"type":"Feature","properties":{"id":"0f02b097-cb25-4a4a-885b-d60bb591109d","name":"Lenningen Fjellstue","dnt_cabin":false,"service_level":"staffed","htgt":{"public_transport_available":false,"boat_transport_available":false,"car_all_year":false,"car_summer":false},"accessabilities":[],"facilities":[]},"geometry":{"type":"Point","coordinates":[9.69646040615286,61.108929625981]}},{"type":"Feature","properties":{"id":"0f3346be-309f-4f52-8f5b-291783a32678","name":"Opptrekkern","dnt_cabin":false,"service_level":"emergency shelter","htgt":{"public_transport_available":false,"boat_transport_available":false,"car_all_year":false,"car_summer":false},"accessabilities":[],"facilities":[]},"geometry":{"type":"Point","coordinates":[11.6388008177929,60.6087749864556]}},{"type":"Feature","properties":{"id":"0f57396a-f9f0-426a-a054-8549570d8383","name":"Fyrbua","dnt_cabin":false,"service_level":"no-service","htgt":{"public_transport_available":true,"boat_transport_available":true,"car_all_year":false,"car_summer":false},"accessabilities":[],"facilities":["mobile coverage","water","rental","oven","220v","booking"]},"geometry":{"type":"Point","coordinates":[10.82981,59.15503]}},{"type":"Feature","properties":{"id":"0f7334fe-3609-4459-a627-a16234a46fe2","name":"Heinseter","dnt_cabin":false,"service_level":"staffed","htgt":{"public_transport_available":false,"boat_transport_available":false,"car_all_year":false,"car_summer":false},"accessabilities":[],"facilities":["drying room","credit card payment","heater","fireplace","food service","shower"]},"geometry":{"type":"Point","coordinates":[7.94196210784582,60.3542492224718]}},{"type":"Feature","properties":{"id":"0fe4519e-c8a8-4bd3-b3c5-f3f370856b8f","name":"Fru Haugans Hotel","dnt_cabin":false,"service_level":"staffed","htgt":{"public_transport_available":false,"boat_transport_available":false,"car_all_year":false,"car_summer":false},"accessabilities":[],"facilities":[]},"geometry":{"type":"Point","coordinates":[13.19038,65.83577]}},{"type":"Feature","properties":{"id":"0fe9a2dc-8f08-4b75-bd5b-abd2179f751a","name":"Reisavannhytta","dnt_cabin":false,"service_level":"no-service","htgt":{"public_transport_available":false,"boat_transport_available":false,"car_all_year":false,"car_summer":true},"accessabilities":[],"facilities":["fishing","wood stove","rental","220v","boat"]},"geometry":{"type":"Point","coordinates":[22.46409,69.21319]}},{"type":"Feature","properties":{"id":"0ff1e2de-862a-482b-a0f9-d323efa01359","name":"Massbu","dnt_cabin":true,"service_level":"no-service","htgt":{"public_transport_available":false,"boat_transport_available":false,"car_all_year":false,"car_summer":false},"accessabilities":[],"facilities":[]},"geometry":{"type":"Point","coordinates":[5.44498569151306,61.4046789788377]}},{"type":"Feature","properties":{"id":"1009c8c5-46fb-461b-be01-5df978fb88e0","name":"Gullholmen","dnt_cabin":false,"service_level":"no-service","htgt":{"public_transport_available":true,"boat_transport_available":true,"car_all_year":false,"car_summer":false},"accessabilities":[],"facilities":["oven","220v","heater","mobile coverage","water","rental"]},"geometry":{"type":"Point","coordinates":[10.57689,59.43527]}},{"type":"Feature","properties":{"id":"10577c9c-cd60-4779-828c-142ad05c5a39","name":"Strømtangen, Bøyenaustet","dnt_cabin":false,"service_level":"no-service","htgt":{"public_transport_available":false,"boat_transport_available":false,"car_all_year":false,"car_summer":false},"accessabilities":[],"facilities":["mobile coverage","water","rental","oven","220v","heater"]},"geometry":{"type":"Point","coordinates":[10.83264,59.15605]}},{"type":"Feature","properties":{"id":"1068970b-9f12-4db9-ac24-38092ab16c31","name":"Kongshelleren","dnt_cabin":true,"service_level":"self-service","htgt":{"public_transport_available":false,"boat_transport_available":false,"car_all_year":false,"car_summer":false},"accessabilities":[],"facilities":["wood stove"]},"geometry":{"type":"Point","coordinates":[7.70118552483954,60.7771009262815]}},{"type":"Feature","properties":{"id":"107b54bf-e8c6-484f-ac68-45a92261ca82","name":"Gargia fjellstue","dnt_cabin":false,"service_level":"staffed","htgt":{"public_transport_available":false,"boat_transport_available":false,"car_all_year":false,"car_summer":false},"accessabilities":[],"facilities":[]},"geometry":{"type":"Point","coordinates":[23.48959,69.80623]}},{"type":"Feature","properties":{"id":"10f6090c-9a08-4fc8-95a2-a219f590f296","name":"Katnosdammen","dnt_cabin":true,"service_level":"no-service","htgt":{"public_transport_available":false,"boat_transport_available":false,"car_all_year":false,"car_summer":false},"accessabilities":[],"facilities":["fishing","swimming","fireplace","oven","220v","canoe","wood stove"]},"geometry":{"type":"Point","coordinates":[10.5913315820471,60.1475954235365]}},{"type":"Feature","properties":{"id":"11040965-a791-4d02-baed-c6eff487009b","name":"Ljørkoia i Svartberget","dnt_cabin":false,"service_level":"emergency shelter","htgt":{"public_transport_available":false,"boat_transport_available":false,"car_all_year":false,"car_summer":false},"accessabilities":[],"facilities":[]},"geometry":{"type":"Point","coordinates":[12.130143657507,60.9147643349453]}},{"type":"Feature","properties":{"id":"112d6d84-fe9e-4c51-a9ad-ca9f228628e1","name":"Abbortjärnsberg","dnt_cabin":false,"service_level":"emergency shelter","htgt":{"public_transport_available":false,"boat_transport_available":false,"car_all_year":false,"car_summer":false},"accessabilities":[],"facilities":["wood stove"]},"geometry":{"type":"Point","coordinates":[12.631526,60.446483]}},{"type":"Feature","properties":{"id":"113ec435-be3c-42a5-8184-752ae5dc754d","name":"Brannåshytta","dnt_cabin":true,"service_level":"food service","htgt":{"public_transport_available":false,"boat_transport_available":false,"car_all_year":false,"car_summer":false},"accessabilities":[],"facilities":["food service"]},"geometry":{"type":"Point","coordinates":[10.23931,59.53297]}},{"type":"Feature","properties":{"id":"114a195f-7f2b-49b2-aa8c-8b4d488f99e4","name":"Løvlia skistue","dnt_cabin":false,"service_level":"staffed","htgt":{"public_transport_available":false,"boat_transport_available":false,"car_all_year":true,"car_summer":false},"accessabilities":[],"facilities":["fireplace","sauna","shower","wc","phone","mobile coverage","water","drying room","220v","credit card payment","food service"]},"geometry":{"type":"Point","coordinates":[10.4253,60.0911]}},{"type":"Feature","properties":{"id":"116cf2fb-222f-4c13-b311-04eaf2387e15","name":"Befalsboligen Bergholmen","dnt_cabin":false,"service_level":"no-service","htgt":{"public_transport_available":false,"boat_transport_available":true,"car_all_year":false,"car_summer":false},"accessabilities":[],"facilities":["fishing","swimming","rental","fireplace","oven","220v","mobile coverage","boat","heater"]},"geometry":{"type":"Point","coordinates":[10.58913,59.6736]}},{"type":"Feature","properties":{"id":"117c70c8-fb09-4f80-87a6-97d40b0cae44","name":"Stalheim Hotel","dnt_cabin":false,"service_level":"staffed","htgt":{"public_transport_available":false,"boat_transport_available":false,"car_all_year":false,"car_summer":false},"accessabilities":[],"facilities":[]},"geometry":{"type":"Point","coordinates":[6.68061,60.83521]}},{"type":"Feature","properties":{"id":"117d8db0-ea77-4a6c-bfb9-1e15c9986fc8","name":"Wadahl Høgfjellshotell","dnt_cabin":false,"service_level":"staffed","htgt":{"public_transport_available":false,"boat_transport_available":false,"car_all_year":false,"car_summer":false},"accessabilities":[],"facilities":[]},"geometry":{"type":"Point","coordinates":[9.78887,61.49969]}},{"type":"Feature","properties":{"id":"118befd6-d42d-49c1-8646-345c5627820c","name":"Gamle Torsætra","dnt_cabin":true,"service_level":"no-service","htgt":{"public_transport_available":false,"boat_transport_available":false,"car_all_year":false,"car_summer":false},"accessabilities":[],"facilities":["220v","wood stove","heater","oven"]},"geometry":{"type":"Point","coordinates":[10.95859,60.56921]}},{"type":"Feature","properties":{"id":"11e6d510-8df0-454b-828c-d2d8e753ec57","name":"Langvasstua","dnt_cabin":false,"service_level":"no-service","htgt":{"public_transport_available":false,"boat_transport_available":false,"car_all_year":false,"car_summer":false},"accessabilities":[],"facilities":["fishing","wc","rental"]},"geometry":{"type":"Point","coordinates":[19.26907,69.0758]}},{"type":"Feature","properties":{"id":"11eee0f7-355a-49bb-847e-4282e9bee763","name":"Korsberghytta","dnt_cabin":true,"service_level":"self-service","htgt":{"public_transport_available":false,"boat_transport_available":false,"car_all_year":false,"car_summer":false},"accessabilities":[],"facilities":["wood stove"]},"geometry":{"type":"Point","coordinates":[10.4436494295403,61.974562443913]}},{"type":"Feature","properties":{"id":"12284a33-b220-4b3e-986c-b5d33fc3c726","name":"Åkerstølen","dnt_cabin":false,"service_level":"closed","htgt":{"public_transport_available":false,"boat_transport_available":false,"car_all_year":false,"car_summer":false},"accessabilities":[],"facilities":["food service"]},"geometry":{"type":"Point","coordinates":[7.96479,60.52292]}},{"type":"Feature","properties":{"id":"127a64c2-23d5-4689-9b9e-d433b23394b3","name":"Vardadalsbu","dnt_cabin":true,"service_level":"self-service","htgt":{"public_transport_available":false,"boat_transport_available":false,"car_all_year":false,"car_summer":false},"accessabilities":[],"facilities":["swimming","wood stove"]},"geometry":{"type":"Point","coordinates":[5.88992045066272,60.9467450997535]}},{"type":"Feature","properties":{"id":"12978a64-355b-4e44-b409-05ea5ffa8b54","name":"Hovedhytta, Gokstadholmen","dnt_cabin":false,"service_level":"no-service","htgt":{"public_transport_available":false,"boat_transport_available":false,"car_all_year":false,"car_summer":false},"accessabilities":[],"facilities":["fishing","swimming","mobile coverage","boat","rental","220v"]},"geometry":{"type":"Point","coordinates":[10.27088,59.11633]}},{"type":"Feature","properties":{"id":"12ad8cc2-29cc-4ed3-82e3-f77384d66509","name":"Bekkestua","dnt_cabin":true,"service_level":"no-service","htgt":{"public_transport_available":false,"boat_transport_available":false,"car_all_year":false,"car_summer":false},"accessabilities":[],"facilities":["fishing","swimming","wood stove"]},"geometry":{"type":"Point","coordinates":[10.9265205250736,60.1511908366839]}},{"type":"Feature","properties":{"id":"12ae4217-3806-4a78-b8eb-63e38e1e456e","name":"Åkersætra ubetjent hytte","dnt_cabin":true,"service_level":"no-service","htgt":{"public_transport_available":false,"boat_transport_available":false,"car_all_year":true,"car_summer":false},"accessabilities":[],"facilities":[]},"geometry":{"type":"Point","coordinates":[10.91643056,61.15529445]}},{"type":"Feature","properties":{"id":"12e8ccd3-e786-40fc-8ab1-058341c90121","name":"Jægervasshytta","dnt_cabin":true,"service_level":"no-service","htgt":{"public_transport_available":false,"boat_transport_available":false,"car_all_year":false,"car_summer":false},"accessabilities":[],"facilities":["wood stove","mobile coverage"]},"geometry":{"type":"Point","coordinates":[19.9247238835627,69.7204854747972]}},{"type":"Feature","properties":{"id":"12eb5ba8-bfea-4b14-a98a-5bbf0b0b76c8","name":"Fugleleiken","dnt_cabin":true,"service_level":"no-service","htgt":{"public_transport_available":false,"boat_transport_available":false,"car_all_year":false,"car_summer":false},"accessabilities":[],"facilities":["food service","wood stove","wc","water","fireplace","12v"]},"geometry":{"type":"Point","coordinates":[9.42495015610227,59.4014044822858]}},{"type":"Feature","properties":{"id":"12f42fba-3021-4ef1-8ae5-0844e4f33ef4","name":"Hamborgstrømpaviljongen","dnt_cabin":true,"service_level":"no-service (no beds)","htgt":{"public_transport_available":false,"boat_transport_available":false,"car_all_year":false,"car_summer":false},"accessabilities":[],"facilities":["oven","wc","water","fireplace","mobile coverage","rental","heater","220v","wood stove"]},"geometry":{"type":"Point","coordinates":[10.1911,59.7542]}},{"type":"Feature","properties":{"id":"130c506c-79b1-4dc6-871d-c7c737163e38","name":"Gratangen hotell","dnt_cabin":false,"service_level":"staffed","htgt":{"public_transport_available":false,"boat_transport_available":false,"car_all_year":false,"car_summer":false},"accessabilities":[],"facilities":[]},"geometry":{"type":"Point","coordinates":[17.76482,68.66259]}},{"type":"Feature","properties":{"id":"130d930f-bba4-4434-b7e7-76fd7ac3c4b3","name":"Sjøli camping","dnt_cabin":false,"service_level":"staffed","htgt":{"public_transport_available":false,"boat_transport_available":false,"car_all_year":true,"car_summer":false},"accessabilities":[],"facilities":["fishing","swimming","wc","tent site","rental"]},"geometry":{"type":"Point","coordinates":[12.4031608649038,60.6885484471652]}},{"type":"Feature","properties":{"id":"136dbe54-0097-48af-b3dd-527840e5934a","name":"Koboltkoia","dnt_cabin":true,"service_level":"no-service","htgt":{"public_transport_available":false,"boat_transport_available":false,"car_all_year":false,"car_summer":false},"accessabilities":[],"facilities":["swimming","local food","food service","mobile coverage","bicycle rentals","wood stove"]},"geometry":{"type":"Point","coordinates":[9.8656,59.9794]}},{"type":"Feature","properties":{"id":"13ca7238-6bd3-45a2-ae72-65f3ad6c06b2","name":"Haukeliseter fjellstue","dnt_cabin":true,"service_level":"staffed","htgt":{"public_transport_available":true,"boat_transport_available":false,"car_all_year":true,"car_summer":false},"accessabilities":[],"facilities":["fishing","swimming","local food","tent site","credit card payment","rental","drying room","heater","boat","mobile coverage","sauna","fireplace","wood stove","shower","220v","canoe","water","wc","food service","phone"]},"geometry":{"type":"Point","coordinates":[7.19396025640311,59.8240035964852]}},{"type":"Feature","properties":{"id":"13d3738f-a230-4c89-b9fd-307ce3d4edb8","name":"Calalveshytta","dnt_cabin":true,"service_level":"no-service","htgt":{"public_transport_available":false,"boat_transport_available":false,"car_all_year":false,"car_summer":false},"accessabilities":[],"facilities":["fishing","12v","wood stove"]},"geometry":{"type":"Point","coordinates":[16.0946564201475,67.0543961812579]}},{"type":"Feature","properties":{"id":"13f5b9e2-f8f0-4042-832c-4767ba4b4224","name":"Mitanderfors","dnt_cabin":false,"service_level":"staffed","htgt":{"public_transport_available":false,"boat_transport_available":false,"car_all_year":false,"car_summer":false},"accessabilities":[],"facilities":[]},"geometry":{"type":"Point","coordinates":[12.5172519168231,60.0861530687138]}},{"type":"Feature","properties":{"id":"13f9c80e-1f8e-4938-8692-c91512d3926b","name":"Bergskoghytta","dnt_cabin":false,"service_level":"no-service","htgt":{"public_transport_available":false,"boat_transport_available":true,"car_all_year":false,"car_summer":false},"accessabilities":[],"facilities":["fishing","heater","shower","wc","water","sauna","fireplace","canoe","rental","wood stove"]},"geometry":{"type":"Point","coordinates":[21.27269,69.5982]}},{"type":"Feature","properties":{"id":"1405e0e4-90b5-4dcf-a258-665405075e40","name":"Altevasshytta","dnt_cabin":true,"service_level":"no-service","htgt":{"public_transport_available":false,"boat_transport_available":false,"car_all_year":false,"car_summer":true},"accessabilities":[],"facilities":["mobile coverage","wood stove"]},"geometry":{"type":"Point","coordinates":[18.8907379,68.6633141]}},{"type":"Feature","properties":{"id":"146bf8e4-437e-4e4c-b664-1ba1d24e5ee2","name":"Holden fjellgård, Bekkstuggu","dnt_cabin":true,"service_level":"self-service","htgt":{"public_transport_available":false,"boat_transport_available":true,"car_all_year":false,"car_summer":false},"accessabilities":[],"facilities":["fishing","swimming","drying room","12v","boat","wood stove"]},"geometry":{"type":"Point","coordinates":[12.8963611239488,64.0634277662145]}},{"type":"Feature","properties":{"id":"14b94844-83c6-4a64-a0cb-b03324287ced","name":"Ertehytta","dnt_cabin":true,"service_level":"food service","htgt":{"public_transport_available":false,"boat_transport_available":false,"car_all_year":false,"car_summer":false},"accessabilities":[],"facilities":["wc","wood stove","fireplace","water","220v","sauna","phone","rental","heater","food service","shower"]},"geometry":{"type":"Point","coordinates":[11.5031863789168,59.1148673941798]}},{"type":"Feature","properties":{"id":"14bf1d65-3097-42d9-82f9-319a0cf0e28a","name":"Spåtind høyfjellshotell","dnt_cabin":false,"service_level":"staffed","htgt":{"public_transport_available":false,"boat_transport_available":false,"car_all_year":true,"car_summer":false},"accessabilities":[],"facilities":["fishing","phone","wc","water","220v","credit card payment","heater","shower","mobile coverage","drying room"]},"geometry":{"type":"Point","coordinates":[9.87269616108689,61.1275212810914]}},{"type":"Feature","properties":{"id":"14cc0b7f-5493-48a6-9992-4f475af20e5f","name":"Lufsjå","dnt_cabin":true,"service_level":"self-service","htgt":{"public_transport_available":false,"boat_transport_available":false,"car_all_year":false,"car_summer":false},"accessabilities":[],"facilities":["swimming","fishing","wood stove","tent site"]},"geometry":{"type":"Point","coordinates":[8.79824347420683,60.1445277116917]}},{"type":"Feature","properties":{"id":"1541ae93-6eed-48b7-9878-2ad41f4ace7a","name":"Bestemorstua","dnt_cabin":false,"service_level":"no-service","htgt":{"public_transport_available":false,"boat_transport_available":false,"car_all_year":false,"car_summer":true},"accessabilities":[],"facilities":["wood stove","fireplace","wc","water","220v","mobile coverage"]},"geometry":{"type":"Point","coordinates":[10.75723,59.82587]}},{"type":"Feature","properties":{"id":"1563606a-2d47-4796-a626-ef46fe0bcf4d","name":"Hembre gård","dnt_cabin":false,"service_level":"staffed","htgt":{"public_transport_available":false,"boat_transport_available":false,"car_all_year":true,"car_summer":false},"accessabilities":[],"facilities":["220v","phone","heater","shower","wc"]},"geometry":{"type":"Point","coordinates":[11.11293,63.46029]}},{"type":"Feature","properties":{"id":"15745748-57ae-4317-b026-5314acb1981c","name":"Kjeldebu","dnt_cabin":true,"service_level":"self-service","htgt":{"public_transport_available":false,"boat_transport_available":false,"car_all_year":false,"car_summer":false},"accessabilities":[],"facilities":["wood stove","drying room","12v"]},"geometry":{"type":"Point","coordinates":[7.49745521812969,60.4267108620107]}},{"type":"Feature","properties":{"id":"159273e3-5990-4953-bdab-c4dec3f9ded5","name":"Bråten","dnt_cabin":false,"service_level":"emergency shelter","htgt":{"public_transport_available":false,"boat_transport_available":false,"car_all_year":false,"car_summer":false},"accessabilities":[],"facilities":[]},"geometry":{"type":"Point","coordinates":[12.23476,60.99778]}},{"type":"Feature","properties":{"id":"15e6763e-0d8a-47e1-8939-eb3052f07e56","name":"Ertevannhytta","dnt_cabin":true,"service_level":"no-service","htgt":{"public_transport_available":false,"boat_transport_available":false,"car_all_year":false,"car_summer":false},"accessabilities":[],"facilities":["mobile coverage","wood stove"]},"geometry":{"type":"Point","coordinates":[11.454116,59.491458]}},{"type":"Feature","properties":{"id":"16cb8c66-efc2-45b6-85a9-513e7c37da82","name":"Gravdalen","dnt_cabin":true,"service_level":"no-service","htgt":{"public_transport_available":false,"boat_transport_available":false,"car_all_year":false,"car_summer":false},"accessabilities":[],"facilities":["wood stove"]},"geometry":{"type":"Point","coordinates":[7.84960329135934,61.3587442498217]}},{"type":"Feature","properties":{"id":"16f18902-d7de-4719-97e9-836beda83c94","name":"Langdalsbu","dnt_cabin":true,"service_level":"food service","htgt":{"public_transport_available":false,"boat_transport_available":false,"car_all_year":false,"car_summer":false},"accessabilities":[],"facilities":["12v","food service"]},"geometry":{"type":"Point","coordinates":[7.41514298419778,62.8254479163687]}},{"type":"Feature","properties":{"id":"171ee1ea-72ac-40e4-9e6c-2ac2c89c1820","name":"Grunnetjørnsbu","dnt_cabin":true,"service_level":"self-service","htgt":{"public_transport_available":false,"boat_transport_available":false,"car_all_year":false,"car_summer":false},"accessabilities":[],"facilities":["fishing","wood stove"]},"geometry":{"type":"Point","coordinates":[8.12518518468801,58.8930435522833]}},{"type":"Feature","properties":{"id":"172d9b0a-f8e9-4fba-ac7b-a8b40786eba4","name":"Goliaten","dnt_cabin":true,"service_level":"no-service","htgt":{"public_transport_available":false,"boat_transport_available":false,"car_all_year":false,"car_summer":false},"accessabilities":[],"facilities":["fishing","swimming","fireplace","mobile coverage","wood stove"]},"geometry":{"type":"Point","coordinates":[10.12007,59.79654]}},{"type":"Feature","properties":{"id":"173caa5e-a603-49df-a909-b484b9f2e091","name":"Kikutstua","dnt_cabin":false,"service_level":"staffed","htgt":{"public_transport_available":false,"boat_transport_available":false,"car_all_year":false,"car_summer":false},"accessabilities":[],"facilities":["fishing","swimming","wc","drying room","220v","heater","canoe","sauna","phone","mobile coverage","food service","fireplace","shower","water","credit card payment"]},"geometry":{"type":"Point","coordinates":[10.6552935892243,60.076376583016]}},{"type":"Feature","properties":{"id":"1748f096-25aa-445a-8dea-c3cd0245a148","name":"Narjordet","dnt_cabin":true,"service_level":"self-service","htgt":{"public_transport_available":false,"boat_transport_available":false,"car_all_year":true,"car_summer":false},"accessabilities":[],"facilities":["wood stove"]},"geometry":{"type":"Point","coordinates":[11.4106,62.4303]}},{"type":"Feature","properties":{"id":"17c0ea72-8be3-44ff-845a-fe3cbf40ec49","name":"Kolvelægeret","dnt_cabin":false,"service_level":"emergency shelter","htgt":{"public_transport_available":false,"boat_transport_available":false,"car_all_year":false,"car_summer":false},"accessabilities":[],"facilities":[]},"geometry":{"type":"Point","coordinates":[7.75963,60.31372]}},{"type":"Feature","properties":{"id":"17e05b18-0103-49f3-b062-715295a7610f","name":"Søndre Langåra Tåkeklokke","dnt_cabin":false,"service_level":"no-service","htgt":{"public_transport_available":true,"boat_transport_available":true,"car_all_year":false,"car_summer":false},"accessabilities":[],"facilities":["fishing","swimming","rental","oven","water","12v","mobile coverage","wood stove","heater"]},"geometry":{"type":"Point","coordinates":[10.564711,59.75951]}},{"type":"Feature","properties":{"id":"17eb057f-257e-4892-967c-1499da426527","name":"Haglebu Turistheim","dnt_cabin":false,"service_level":"staffed","htgt":{"public_transport_available":false,"boat_transport_available":false,"car_all_year":false,"car_summer":false},"accessabilities":[],"facilities":[]},"geometry":{"type":"Point","coordinates":[9.1864674313686,60.3429416821294]}},{"type":"Feature","properties":{"id":"17f5057c-4537-4671-a031-4f87512b1a8d","name":"Stavassgården","dnt_cabin":false,"service_level":"no-service","htgt":{"public_transport_available":false,"boat_transport_available":false,"car_all_year":false,"car_summer":true},"accessabilities":[],"facilities":["fishing","rental","tent site","wood stove","oven"]},"geometry":{"type":"Point","coordinates":[13.2916233,65.4871362]}},{"type":"Feature","properties":{"id":"1845a07a-ac19-4a7d-a7c1-2cbc0e57d5f8","name":"Rødungstøl Høyfjellshotell","dnt_cabin":false,"service_level":"staffed","htgt":{"public_transport_available":true,"boat_transport_available":false,"car_all_year":true,"car_summer":false},"accessabilities":[],"facilities":["fishing","local food","phone","mobile coverage","credit card payment","sauna","heater","bicycle rentals","fireplace"]},"geometry":{"type":"Point","coordinates":[8.25388563096589,60.7102294288407]}},{"type":"Feature","properties":{"id":"1849ed6a-ac37-4819-8490-ab592f43ede5","name":"Rondeheim (Den Norske Fjellskole)","dnt_cabin":false,"service_level":"staffed","htgt":{"public_transport_available":true,"boat_transport_available":false,"car_all_year":true,"car_summer":false},"accessabilities":[],"facilities":["drying room","220v","credit card payment","water","mobile coverage","heater","fireplace","shower","phone"]},"geometry":{"type":"Point","coordinates":[9.47274659937009,61.88836340572]}},{"type":"Feature","properties":{"id":"184de585-b171-40b1-8b63-b50e172edfa2","name":"Storkvolvbua","dnt_cabin":true,"service_level":"self-service","htgt":{"public_transport_available":false,"boat_transport_available":false,"car_all_year":false,"car_summer":false},"accessabilities":[],"facilities":["fishing","wood stove"]},"geometry":{"type":"Point","coordinates":[9.44573188660974,61.3373521461844]}},{"type":"Feature","properties":{"id":"18598115-8baa-4931-b71c-c226bd2747eb","name":"Raentserenmehkie","dnt_cabin":false,"service_level":"emergency shelter","htgt":{"public_transport_available":false,"boat_transport_available":false,"car_all_year":false,"car_summer":false},"accessabilities":[],"facilities":[]},"geometry":{"type":"Point","coordinates":[14.1722,65.1708]}},{"type":"Feature","properties":{"id":"1884451f-9c01-4ccf-9b7f-512c8bad8c6a","name":"Stavassætra","dnt_cabin":true,"service_level":"no-service","htgt":{"public_transport_available":false,"boat_transport_available":false,"car_all_year":false,"car_summer":false},"accessabilities":[],"facilities":["wood stove","tent site"]},"geometry":{"type":"Point","coordinates":[13.2352089183797,65.5030713148063]}},{"type":"Feature","properties":{"id":"18e356fc-0578-4e44-9d8c-d2b00c9aa5f6","name":"Jakobselet","dnt_cabin":true,"service_level":"no-service","htgt":{"public_transport_available":false,"boat_transport_available":false,"car_all_year":false,"car_summer":false},"accessabilities":[],"facilities":["fishing","swimming","wood stove","boat"]},"geometry":{"type":"Point","coordinates":[7.5769,62.1883]}},{"type":"Feature","properties":{"id":"18ee17ef-5fef-4dad-99e2-35857d9d0908","name":"Grimsdalshytta","dnt_cabin":true,"service_level":"staffed","htgt":{"public_transport_available":false,"boat_transport_available":false,"car_all_year":false,"car_summer":true},"accessabilities":[],"facilities":["fishing","swimming","local food","wc","water","220v","food service","drying room","tent site","bicycle rentals","credit card payment","heater","shower","fireplace"]},"geometry":{"type":"Point","coordinates":[9.64146172442694,62.0907205692801]}},{"type":"Feature","properties":{"id":"196565ea-47b0-425a-9ffe-08193e8db639","name":"Gåsen Fjällstuga","dnt_cabin":false,"service_level":"self-service","htgt":{"public_transport_available":false,"boat_transport_available":false,"car_all_year":false,"car_summer":false},"accessabilities":[],"facilities":["phone","credit card payment"]},"geometry":{"type":"Point","coordinates":[12.544234,63.04965]}},{"type":"Feature","properties":{"id":"196b6d98-f9d8-4bb1-8529-64f627938aa9","name":"Veslebu","dnt_cabin":true,"service_level":"no-service","htgt":{"public_transport_available":true,"boat_transport_available":false,"car_all_year":true,"car_summer":false},"accessabilities":[],"facilities":["fishing","swimming","drying room","boat","credit card payment","water","heater","rental","fireplace","canoe","mobile coverage","food service"]},"geometry":{"type":"Point","coordinates":[6.13558829252554,58.9874059766369]}},{"type":"Feature","properties":{"id":"196d44ab-937f-4f66-84fe-1f153b0ad698","name":"Lågvassbua","dnt_cabin":false,"service_level":"no-service","htgt":{"public_transport_available":false,"boat_transport_available":false,"car_all_year":false,"car_summer":false},"accessabilities":[],"facilities":[]},"geometry":{"type":"Point","coordinates":[12.27378,63.98014]}},{"type":"Feature","properties":{"id":"19aa5903-086b-40a6-b7f3-1f8fef7b2897","name":"Svarthamar","dnt_cabin":true,"service_level":"self-service","htgt":{"public_transport_available":false,"boat_transport_available":false,"car_all_year":false,"car_summer":true},"accessabilities":[],"facilities":["wood stove"]},"geometry":{"type":"Point","coordinates":[9.51080925294747,61.1423210163058]}},{"type":"Feature","properties":{"id":"19be7638-bf7e-49fb-9a8a-147c63e02a3e","name":"Rundkjølbrakka","dnt_cabin":true,"service_level":"no-service","htgt":{"public_transport_available":false,"boat_transport_available":false,"car_all_year":false,"car_summer":false},"accessabilities":[],"facilities":[]},"geometry":{"type":"Point","coordinates":[11.945744,60.834084]}},{"type":"Feature","properties":{"id":"1a0b2ab4-6e59-43e8-94f0-547a21a35687","name":"Homlungen fyr","dnt_cabin":false,"service_level":"no-service","htgt":{"public_transport_available":false,"boat_transport_available":false,"car_all_year":false,"car_summer":false},"accessabilities":[],"facilities":["fishing","swimming","boat","heater","rental","oven","shower","12v","mobile coverage"]},"geometry":{"type":"Point","coordinates":[11.02413,59.0168]}},{"type":"Feature","properties":{"id":"1a1542d7-493c-46f6-8418-6fdb059011f1","name":"Farmenkoia","dnt_cabin":true,"service_level":"no-service (no beds)","htgt":{"public_transport_available":false,"boat_transport_available":false,"car_all_year":false,"car_summer":false},"accessabilities":[],"facilities":["wood stove"]},"geometry":{"type":"Point","coordinates":[11.22856197,60.7867176]}},{"type":"Feature","properties":{"id":"1a291331-4181-4b92-b25f-d7bc41c6c521","name":"Storjordstua","dnt_cabin":true,"service_level":"no-service","htgt":{"public_transport_available":true,"boat_transport_available":false,"car_all_year":true,"car_summer":false},"accessabilities":[],"facilities":["swimming","fishing","wood stove","food service","mobile coverage","tent site"]},"geometry":{"type":"Point","coordinates":[15.4008182150247,66.814009861243]}},{"type":"Feature","properties":{"id":"1a468986-7f64-4340-afb1-6c7484eb1da5","name":"Vassdalstjørn","dnt_cabin":true,"service_level":"self-service","htgt":{"public_transport_available":false,"boat_transport_available":false,"car_all_year":false,"car_summer":false},"accessabilities":[],"facilities":["fishing","swimming","wood stove","drying room"]},"geometry":{"type":"Point","coordinates":[6.97299595162694,59.397338905923]}},{"type":"Feature","properties":{"id":"1ad8a6fe-473b-49ea-8e0d-917a99de13c8","name":"Østmarkkapellet","dnt_cabin":false,"service_level":"food service","htgt":{"public_transport_available":false,"boat_transport_available":false,"car_all_year":false,"car_summer":false},"accessabilities":[],"facilities":["food service","220v"]},"geometry":{"type":"Point","coordinates":[10.8808,59.85084]}},{"type":"Feature","properties":{"id":"1af58cb1-9f71-470c-9bac-68fab7c0c919","name":"Hardbakkhytta","dnt_cabin":true,"service_level":"self-service","htgt":{"public_transport_available":false,"boat_transport_available":false,"car_all_year":false,"car_summer":false},"accessabilities":[],"facilities":[]},"geometry":{"type":"Point","coordinates":[8.76387853350056,63.1001722854437]}},{"type":"Feature","properties":{"id":"1af7952a-85cc-481d-9b2c-818292003efb","name":"Fellvasstua","dnt_cabin":true,"service_level":"no-service","htgt":{"public_transport_available":false,"boat_transport_available":false,"car_all_year":false,"car_summer":false},"accessabilities":[],"facilities":["swimming","fishing","tent site","mobile coverage","12v","canoe","boat","wood stove"]},"geometry":{"type":"Point","coordinates":[14.1559431755195,66.8610124978763]}},{"type":"Feature","properties":{"id":"1af8bdea-d6fa-4c92-b216-4e2d69d36c72","name":"Svartvassbu","dnt_cabin":true,"service_level":"no-service","htgt":{"public_transport_available":false,"boat_transport_available":false,"car_all_year":false,"car_summer":false},"accessabilities":[],"facilities":["fishing","wood stove","12v","mobile coverage","booking"]},"geometry":{"type":"Point","coordinates":[8.05048125284998,62.5988660958487]}},{"type":"Feature","properties":{"id":"1b13430f-5cba-4e36-9972-bb32f1617cbd","name":"Nutevasshytta","dnt_cabin":true,"service_level":"self-service","htgt":{"public_transport_available":false,"boat_transport_available":false,"car_all_year":false,"car_summer":false},"accessabilities":[],"facilities":["fishing","swimming","wood stove"]},"geometry":{"type":"Point","coordinates":[7.81745537282836,59.1068704741899]}},{"type":"Feature","properties":{"id":"1b2feb9a-7fe7-4442-b76b-e04e0af42e98","name":"Øyungshytta","dnt_cabin":true,"service_level":"self-service","htgt":{"public_transport_available":false,"boat_transport_available":false,"car_all_year":false,"car_summer":false},"accessabilities":[],"facilities":["12v","water","wood stove","fireplace","mobile coverage","boat","booking"]},"geometry":{"type":"Point","coordinates":[10.93272,61.21899]}},{"type":"Feature","properties":{"id":"1b37827a-80fa-4219-97eb-5392cee376f9","name":"Sinnerdammen","dnt_cabin":true,"service_level":"no-service","htgt":{"public_transport_available":false,"boat_transport_available":false,"car_all_year":false,"car_summer":false},"accessabilities":[],"facilities":["fishing","swimming","wood stove","fireplace"]},"geometry":{"type":"Point","coordinates":[10.4959017992588,60.1691335727137]}},{"type":"Feature","properties":{"id":"1b72dcb9-66ce-45f1-8d9b-4b4b075d17de","name":"Djupslia","dnt_cabin":true,"service_level":"self-service","htgt":{"public_transport_available":false,"boat_transport_available":false,"car_all_year":false,"car_summer":true},"accessabilities":[],"facilities":["swimming","fishing","mobile coverage","canoe","drying room","12v","tent site","wood stove"]},"geometry":{"type":"Point","coordinates":[10.5830642816129,61.3725239453012]}},{"type":"Feature","properties":{"id":"1b8e32db-ec51-48c1-9f77-ce35e3ebb370","name":"Finnsbråten","dnt_cabin":true,"service_level":"no-service","htgt":{"public_transport_available":false,"boat_transport_available":false,"car_all_year":false,"car_summer":false},"accessabilities":[],"facilities":["wood stove"]},"geometry":{"type":"Point","coordinates":[11.31095,60.46232]}},{"type":"Feature","properties":{"id":"1b972911-93d6-455b-b502-ca852789108a","name":"Skjellbreidhytta","dnt_cabin":true,"service_level":"no-service","htgt":{"public_transport_available":false,"boat_transport_available":false,"car_all_year":false,"car_summer":true},"accessabilities":[],"facilities":["fishing","swimming","boat","wood stove"]},"geometry":{"type":"Point","coordinates":[10.098249114988,61.1149609153834]}},{"type":"Feature","properties":{"id":"1c4db3a9-64cb-4cdd-9333-1b03b6cdf4a2","name":"Sandvasshytta","dnt_cabin":true,"service_level":"self-service","htgt":{"public_transport_available":false,"boat_transport_available":false,"car_all_year":false,"car_summer":false},"accessabilities":[],"facilities":["fishing","swimming","boat","wood stove","drying room","12v","oven"]},"geometry":{"type":"Point","coordinates":[6.30648012925029,59.7902087471719]}},{"type":"Feature","properties":{"id":"1c9d8a16-50b0-4e0f-8497-2d2cce6d7402","name":"Helgedammen","dnt_cabin":true,"service_level":"no-service","htgt":{"public_transport_available":false,"boat_transport_available":false,"car_all_year":true,"car_summer":false},"accessabilities":[],"facilities":["fishing","swimming","wood stove","fireplace","tent site"]},"geometry":{"type":"Point","coordinates":[12.42388,60.380063]}},{"type":"Feature","properties":{"id":"1cefd97c-057f-4437-9453-260d6d25d92c","name":"Ødegårdbua nord","dnt_cabin":false,"service_level":"no-service","htgt":{"public_transport_available":true,"boat_transport_available":false,"car_all_year":true,"car_summer":false},"accessabilities":[],"facilities":["heater","shower","mobile coverage","water","rental","oven","220v","wc"]},"geometry":{"type":"Point","coordinates":[10.31996,59.48937]}},{"type":"Feature","properties":{"id":"1cf1e240-a633-4889-99bc-78a9f19c7d38","name":"Blektjernstua","dnt_cabin":true,"service_level":"emergency shelter","htgt":{"public_transport_available":false,"boat_transport_available":false,"car_all_year":false,"car_summer":false},"accessabilities":[],"facilities":["fishing","swimming","wood stove","wc","heater","oven","220v","mobile coverage"]},"geometry":{"type":"Point","coordinates":[10.18738,59.72474]}},{"type":"Feature","properties":{"id":"1cf6f4e5-f54a-4ccd-bbf9-995f9ff92589","name":"Høgsjøberget","dnt_cabin":false,"service_level":"emergency shelter","htgt":{"public_transport_available":false,"boat_transport_available":false,"car_all_year":false,"car_summer":false},"accessabilities":[],"facilities":[]},"geometry":{"type":"Point","coordinates":[12.2791119180921,60.8346666827208]}},{"type":"Feature","properties":{"id":"1d2a1321-c3bb-42cd-8df6-48e0c87c31bf","name":"Femund Canoe Camp","dnt_cabin":false,"service_level":"staffed","htgt":{"public_transport_available":true,"boat_transport_available":false,"car_all_year":true,"car_summer":false},"accessabilities":[],"facilities":["shower","mobile coverage","220v","rental","food service","canoe","water","wc","credit card payment","sauna","tent site"]},"geometry":{"type":"Point","coordinates":[11.96001,61.96983]}},{"type":"Feature","properties":{"id":"1d475a32-9c3f-47e9-8677-7becaf0409f0","name":"Bjordalsbu","dnt_cabin":true,"service_level":"self-service","htgt":{"public_transport_available":false,"boat_transport_available":false,"car_all_year":false,"car_summer":false},"accessabilities":[],"facilities":["wood stove"]},"geometry":{"type":"Point","coordinates":[7.9977727352298,60.9271109249744]}},{"type":"Feature","properties":{"id":"1d5f5724-4a3d-4389-94eb-9c468c21b40b","name":"Gråtådalstua","dnt_cabin":true,"service_level":"no-service","htgt":{"public_transport_available":false,"boat_transport_available":false,"car_all_year":false,"car_summer":false},"accessabilities":[],"facilities":["tent site","shower","12v","wood stove"]},"geometry":{"type":"Point","coordinates":[14.4742156279381,66.7871777105009]}},{"type":"Feature","properties":{"id":"1db55f4c-cb12-47fb-ac62-c0004076a297","name":"Tomannsbu","dnt_cabin":true,"service_level":"self-service","htgt":{"public_transport_available":false,"boat_transport_available":false,"car_all_year":false,"car_summer":false},"accessabilities":[],"facilities":["swimming","tent site","boat","wood stove","drying room","12v"]},"geometry":{"type":"Point","coordinates":[6.64353466071406,58.8308467984213]}},{"type":"Feature","properties":{"id":"1de0ca1f-1c8d-4e7d-9791-b02acc76f044","name":"Brutjernskoia","dnt_cabin":true,"service_level":"emergency shelter","htgt":{"public_transport_available":false,"boat_transport_available":false,"car_all_year":false,"car_summer":false},"accessabilities":[],"facilities":["fishing","swimming","wood stove"]},"geometry":{"type":"Point","coordinates":[12.423874,60.380044]}},{"type":"Feature","properties":{"id":"1e37ce48-33a5-4dfc-9a10-62f3b64d8860","name":"Röjden sørskyddet","dnt_cabin":false,"service_level":"emergency shelter","htgt":{"public_transport_available":false,"boat_transport_available":false,"car_all_year":false,"car_summer":false},"accessabilities":[],"facilities":[]},"geometry":{"type":"Point","coordinates":[12.613613,60.385187]}},{"type":"Feature","properties":{"id":"1e713314-72f3-4fab-b4e7-aae90c6a0967","name":"Folldal Fjellhotell/Storhøseter","dnt_cabin":false,"service_level":"staffed","htgt":{"public_transport_available":false,"boat_transport_available":false,"car_all_year":false,"car_summer":false},"accessabilities":[],"facilities":[]},"geometry":{"type":"Point","coordinates":[10.0225511198122,62.1448179880522]}},{"type":"Feature","properties":{"id":"1e999d6e-a2a9-4e4e-8a08-f7f4a0aaad59","name":"Jashaugbu","dnt_cabin":true,"service_level":"no-service","htgt":{"public_transport_available":false,"boat_transport_available":false,"car_all_year":false,"car_summer":true},"accessabilities":[],"facilities":["fishing","swimming","tent site","wood stove"]},"geometry":{"type":"Point","coordinates":[6.73771,60.97939]}},{"type":"Feature","properties":{"id":"1eb26f17-a94d-48ec-b9cb-11cab7514269","name":"Vasskoia","dnt_cabin":false,"service_level":"no-service","htgt":{"public_transport_available":false,"boat_transport_available":false,"car_all_year":false,"car_summer":false},"accessabilities":[],"facilities":[]},"geometry":{"type":"Point","coordinates":[12.2117106987856,60.920971164674]}},{"type":"Feature","properties":{"id":"1edd72e7-5ac7-4026-a6e0-fc18b2a8c1d0","name":"Koversjøhytta","dnt_cabin":false,"service_level":"no-service","htgt":{"public_transport_available":false,"boat_transport_available":false,"car_all_year":false,"car_summer":false},"accessabilities":[],"facilities":["fishing","swimming","rental","water","boat","wood stove"]},"geometry":{"type":"Point","coordinates":[10.6956251893451,62.4747153646223]}},{"type":"Feature","properties":{"id":"1eed40c0-4885-4fda-9706-4117e52639e2","name":"Gjevilvasshytta","dnt_cabin":true,"service_level":"staffed","htgt":{"public_transport_available":true,"boat_transport_available":true,"car_all_year":false,"car_summer":true},"accessabilities":[],"facilities":["swimming","local food","fishing","water","credit card payment","shower","heater","fireplace","drying room","rental","220v","food service"]},"geometry":{"type":"Point","coordinates":[9.42035093862709,62.6985376226584]}},{"type":"Feature","properties":{"id":"1f045260-c6af-49ab-a2f7-61a3c716e72b","name":"Flisberget","dnt_cabin":true,"service_level":"no-service","htgt":{"public_transport_available":false,"boat_transport_available":false,"car_all_year":true,"car_summer":false},"accessabilities":[],"facilities":["fishing","swimming","wood stove","tent site","mobile coverage"]},"geometry":{"type":"Point","coordinates":[12.087171,61.006433]}},{"type":"Feature","properties":{"id":"1f62a567-e9f5-4cdb-b419-065a91b2affd","name":"Heiberghytta Grautheller","dnt_cabin":true,"service_level":"no-service","htgt":{"public_transport_available":false,"boat_transport_available":false,"car_all_year":false,"car_summer":false},"accessabilities":[],"facilities":["fishing","swimming","wood stove","rental"]},"geometry":{"type":"Point","coordinates":[6.875576,59.11663]}},{"type":"Feature","properties":{"id":"1f8f0247-416d-419a-aab3-58e693b97cf1","name":"Hovden Fjellstoge","dnt_cabin":false,"service_level":"staffed","htgt":{"public_transport_available":true,"boat_transport_available":false,"car_all_year":true,"car_summer":false},"accessabilities":[],"facilities":["phone","mobile coverage","heater","shower","water","220v"]},"geometry":{"type":"Point","coordinates":[7.38927,59.57943]}},{"type":"Feature","properties":{"id":"2018ae47-4206-4c85-bbd5-39c2cd04a46d","name":"Gloppen Hotell","dnt_cabin":false,"service_level":"staffed","htgt":{"public_transport_available":false,"boat_transport_available":false,"car_all_year":false,"car_summer":false},"accessabilities":[],"facilities":[]},"geometry":{"type":"Point","coordinates":[6.21637,61.77512]}},{"type":"Feature","properties":{"id":"205c034e-186b-4029-a6c3-afe34e266571","name":"Middalsbu","dnt_cabin":true,"service_level":"self-service","htgt":{"public_transport_available":false,"boat_transport_available":false,"car_all_year":false,"car_summer":false},"accessabilities":[],"facilities":["wood stove","credit card payment"]},"geometry":{"type":"Point","coordinates":[6.99005482022101,59.9549413821633]}},{"type":"Feature","properties":{"id":"20a6c9f9-5462-4f01-affc-406474e709d2","name":"Maistua","dnt_cabin":true,"service_level":"no-service","htgt":{"public_transport_available":false,"boat_transport_available":false,"car_all_year":false,"car_summer":false},"accessabilities":[],"facilities":["220v","heater","mobile coverage"]},"geometry":{"type":"Point","coordinates":[16.5196036162703,68.7614998194305]}},{"type":"Feature","properties":{"id":"20c37046-37bc-4c9f-936a-b1aa9a042d51","name":"Finnvadhuken","dnt_cabin":false,"service_level":"emergency shelter","htgt":{"public_transport_available":false,"boat_transport_available":false,"car_all_year":true,"car_summer":false},"accessabilities":[],"facilities":["fishing"]},"geometry":{"type":"Point","coordinates":[12.3029044063482,60.6989189497431]}},{"type":"Feature","properties":{"id":"20cec23f-a39e-4185-8b58-37595e128534","name":"Madam Bongos Fjellstue","dnt_cabin":false,"service_level":"staffed","htgt":{"public_transport_available":false,"boat_transport_available":false,"car_all_year":true,"car_summer":false},"accessabilities":[],"facilities":["fishing","local food","phone","shower","220v","sauna","boat"]},"geometry":{"type":"Point","coordinates":[22.8451601658559,69.0707462231051]}},{"type":"Feature","properties":{"id":"20dd7291-b844-4926-9381-590c922513b6","name":"Briksdalsbre Fjellstove","dnt_cabin":false,"service_level":"staffed","htgt":{"public_transport_available":false,"boat_transport_available":false,"car_all_year":false,"car_summer":false},"accessabilities":[],"facilities":[]},"geometry":{"type":"Point","coordinates":[6.82211845294224,61.6627999153954]}},{"type":"Feature","properties":{"id":"21203492-a28d-47d7-8c92-f2d52ffa155b","name":"Fiskerhytta","dnt_cabin":false,"service_level":"no-service","htgt":{"public_transport_available":true,"boat_transport_available":false,"car_all_year":true,"car_summer":false},"accessabilities":[],"facilities":["fishing","swimming","mobile coverage","rental","booking","boat"]},"geometry":{"type":"Point","coordinates":[10.5832,59.66462]}},{"type":"Feature","properties":{"id":"212d6a03-4748-4122-b816-dc4bcbd28afa","name":"Storhøliseter","dnt_cabin":true,"service_level":"self-service","htgt":{"public_transport_available":false,"boat_transport_available":false,"car_all_year":false,"car_summer":true},"accessabilities":[],"facilities":["wood stove"]},"geometry":{"type":"Point","coordinates":[9.34528934365036,61.4176040307139]}},{"type":"Feature","properties":{"id":"218a2d47-7226-4f47-b6ec-ed2888c34acb","name":"Nodhagen","dnt_cabin":true,"service_level":"no-service","htgt":{"public_transport_available":true,"boat_transport_available":false,"car_all_year":true,"car_summer":false},"accessabilities":[],"facilities":["fishing","swimming","water","rental","fireplace","boat","heater","shower","220v","oven","tent site","wc","mobile coverage","wood stove"]},"geometry":{"type":"Point","coordinates":[5.96677181615531,58.920976231429]}},{"type":"Feature","properties":{"id":"21e0364e-1a9d-4f20-a6c0-d79718c21092","name":"Reinheim","dnt_cabin":true,"service_level":"self-service","htgt":{"public_transport_available":false,"boat_transport_available":false,"car_all_year":false,"car_summer":false},"accessabilities":[],"facilities":["drying room","wood stove"]},"geometry":{"type":"Point","coordinates":[9.35709650479606,62.3414858345727]}},{"type":"Feature","properties":{"id":"21fd0b4d-e236-4d06-9402-cfd6a9119730","name":"Dalseter Høyfjellshotell","dnt_cabin":false,"service_level":"staffed","htgt":{"public_transport_available":true,"boat_transport_available":false,"car_all_year":true,"car_summer":false},"accessabilities":[],"facilities":["fishing","swimming","drying room","boat","fireplace","water","phone","mobile coverage","canoe","food service","credit card payment","shower","220v","sauna","bicycle rentals"]},"geometry":{"type":"Point","coordinates":[9.46026194842668,61.4668942944143]}},{"type":"Feature","properties":{"id":"22213afe-7c03-47d1-a067-d1d67b95b49f","name":"Homborsund fyr","dnt_cabin":false,"service_level":"staffed","htgt":{"public_transport_available":false,"boat_transport_available":false,"car_all_year":false,"car_summer":false},"accessabilities":[],"facilities":["fishing"]},"geometry":{"type":"Point","coordinates":[8.52953,58.25396]}},{"type":"Feature","properties":{"id":"224e0813-07e2-4b24-9ddf-b54764fabfa7","name":"Kaldavasshytta","dnt_cabin":true,"service_level":"no-service","htgt":{"public_transport_available":false,"boat_transport_available":false,"car_all_year":false,"car_summer":false},"accessabilities":[],"facilities":["12v","credit card payment","wood stove"]},"geometry":{"type":"Point","coordinates":[7.07970332215315,60.7019515084634]}},{"type":"Feature","properties":{"id":"225aa3ac-28a4-49aa-b842-6da05f8b8a33","name":"Kaldhusseter","dnt_cabin":true,"service_level":"self-service","htgt":{"public_transport_available":false,"boat_transport_available":false,"car_all_year":false,"car_summer":true},"accessabilities":[],"facilities":["swimming","rental","220v","mobile coverage","wood stove","water","shower","wc","heater","oven"]},"geometry":{"type":"Point","coordinates":[7.42919613339388,62.1727807566577]}},{"type":"Feature","properties":{"id":"2283318f-863d-4400-9c87-bde120d80b66","name":"Lågaros","dnt_cabin":true,"service_level":"self-service","htgt":{"public_transport_available":false,"boat_transport_available":false,"car_all_year":false,"car_summer":false},"accessabilities":[],"facilities":["drying room","wood stove"]},"geometry":{"type":"Point","coordinates":[7.80176270804336,60.1315194179359]}},{"type":"Feature","properties":{"id":"22ce85cd-ce3c-45ca-99a4-4c62098c4062","name":"Brunkollen","dnt_cabin":false,"service_level":"food service","htgt":{"public_transport_available":false,"boat_transport_available":false,"car_all_year":false,"car_summer":false},"accessabilities":[],"facilities":["food service"]},"geometry":{"type":"Point","coordinates":[10.5474,59.9674]}},{"type":"Feature","properties":{"id":"22e19f9a-e679-4607-b74c-82caa8fe6905","name":"Hitra leirskole - Skårøya","dnt_cabin":false,"service_level":"no-service","htgt":{"public_transport_available":false,"boat_transport_available":true,"car_all_year":false,"car_summer":false},"accessabilities":[],"facilities":["wc","rental","220v","drying room","shower","fireplace","oven","water","mobile coverage","boat"]},"geometry":{"type":"Point","coordinates":[8.30620447,63.51605441]}},{"type":"Feature","properties":{"id":"237d7fdc-5349-4d8d-874a-4676c02c5e92","name":"Bleskestadmoen","dnt_cabin":true,"service_level":"self-service","htgt":{"public_transport_available":false,"boat_transport_available":false,"car_all_year":false,"car_summer":false},"accessabilities":[],"facilities":["fishing","swimming","12v","wood stove"]},"geometry":{"type":"Point","coordinates":[6.98398055622488,59.6260632369033]}},{"type":"Feature","properties":{"id":"23f45f55-f737-407c-a08a-a569c1b0b9ad","name":"Grøssete","dnt_cabin":true,"service_level":"no-service","htgt":{"public_transport_available":false,"boat_transport_available":false,"car_all_year":false,"car_summer":false},"accessabilities":[],"facilities":["wood stove"]},"geometry":{"type":"Point","coordinates":[6.98990329417458,61.3379289311691]}},{"type":"Feature","properties":{"id":"2415e2c4-1a23-486e-8dde-f0dca46635b6","name":"Haldammen","dnt_cabin":false,"service_level":"no-service","htgt":{"public_transport_available":false,"boat_transport_available":false,"car_all_year":false,"car_summer":false},"accessabilities":[],"facilities":["fishing"]},"geometry":{"type":"Point","coordinates":[12.3068153710068,60.8546350679953]}},{"type":"Feature","properties":{"id":"2432d87c-717a-4a88-9aff-50521905705d","name":"Vindølbu","dnt_cabin":true,"service_level":"self-service","htgt":{"public_transport_available":false,"boat_transport_available":false,"car_all_year":false,"car_summer":false},"accessabilities":[],"facilities":["wood stove"]},"geometry":{"type":"Point","coordinates":[9.0092934,62.9215892]}},{"type":"Feature","properties":{"id":"2481efa7-db42-4bdc-8cb0-91af4e166176","name":"Montebello camping","dnt_cabin":false,"service_level":"staffed","htgt":{"public_transport_available":false,"boat_transport_available":false,"car_all_year":false,"car_summer":false},"accessabilities":[],"facilities":[]},"geometry":{"type":"Point","coordinates":[12.2305682066213,59.9340119999565]}},{"type":"Feature","properties":{"id":"24d3992a-f588-4052-8b1e-a668e17485c1","name":"Gaundalen Fjellgård","dnt_cabin":false,"service_level":"staffed","htgt":{"public_transport_available":false,"boat_transport_available":false,"car_all_year":false,"car_summer":false},"accessabilities":[],"facilities":[]},"geometry":{"type":"Point","coordinates":[12.6824373738957,64.0154867737951]}},{"type":"Feature","properties":{"id":"24dced03-8f24-439f-91c8-9ebecb152b78","name":"Eriksbu","dnt_cabin":true,"service_level":"no-service","htgt":{"public_transport_available":false,"boat_transport_available":false,"car_all_year":false,"car_summer":false},"accessabilities":[],"facilities":["fishing","12v","wood stove"]},"geometry":{"type":"Point","coordinates":[9.18842463614556,59.8818329121573]}},{"type":"Feature","properties":{"id":"252610ba-8f65-465e-a3a2-0c30d93e8bd5","name":"Mollesjohka fjellstue/ Mollisjok fjellstue","dnt_cabin":false,"service_level":"staffed","htgt":{"public_transport_available":false,"boat_transport_available":false,"car_all_year":false,"car_summer":false},"accessabilities":[],"facilities":["fishing","food service","220v","mobile coverage","sauna","wood stove"]},"geometry":{"type":"Point","coordinates":[24.3901747336386,69.5658751322004]}},{"type":"Feature","properties":{"id":"268d01cd-52af-46b0-90c0-8b399cf5cbfe","name":"Nøsen Fjellhotell","dnt_cabin":false,"service_level":"staffed","htgt":{"public_transport_available":false,"boat_transport_available":false,"car_all_year":false,"car_summer":false},"accessabilities":[],"facilities":[]},"geometry":{"type":"Point","coordinates":[8.85022808315003,60.9373068306332]}},{"type":"Feature","properties":{"id":"26a6e786-4f99-4d41-b0ad-213840b54e84","name":"Grasfjellkoia","dnt_cabin":true,"service_level":"emergency shelter","htgt":{"public_transport_available":false,"boat_transport_available":false,"car_all_year":false,"car_summer":false},"accessabilities":[],"facilities":["wood stove"]},"geometry":{"type":"Point","coordinates":[14.430988845332,66.1168205993739]}},{"type":"Feature","properties":{"id":"26e337da-2e3d-43b6-bba7-a7734b0223d8","name":"Bellingstua","dnt_cabin":true,"service_level":"self-service","htgt":{"public_transport_available":false,"boat_transport_available":false,"car_all_year":false,"car_summer":false},"accessabilities":[],"facilities":["220v","mobile coverage","wood stove","heater"]},"geometry":{"type":"Point","coordinates":[12.2613575775209,63.682812]}},{"type":"Feature","properties":{"id":"272f72d9-b25d-451d-9785-c4fb29051610","name":"Skongenes fyr","dnt_cabin":true,"service_level":"no-service","htgt":{"public_transport_available":false,"boat_transport_available":false,"car_all_year":false,"car_summer":false},"accessabilities":[],"facilities":["fishing","swimming","heater","wc","220v","shower","tent site","drying room","food service","phone","oven","rental","water","mobile coverage"]},"geometry":{"type":"Point","coordinates":[5.12273038254969,62.0320444323309]}},{"type":"Feature","properties":{"id":"27345935-f23d-4c69-a7fc-ae88e865752b","name":"Vending","dnt_cabin":true,"service_level":"self-service","htgt":{"public_transport_available":false,"boat_transport_available":false,"car_all_year":false,"car_summer":false},"accessabilities":[],"facilities":["fishing","swimming","oven","mobile coverage","wood stove"]},"geometry":{"type":"Point","coordinates":[6.07516738508901,60.4740267915025]}},{"type":"Feature","properties":{"id":"274e4e1c-3b3a-4cb9-adc8-880ce676fd55","name":"Sandvatnbrakka","dnt_cabin":true,"service_level":"self-service","htgt":{"public_transport_available":false,"boat_transport_available":false,"car_all_year":false,"car_summer":false},"accessabilities":[],"facilities":["fishing","swimming","12v","wood stove"]},"geometry":{"type":"Point","coordinates":[6.67805,59.79837]}},{"type":"Feature","properties":{"id":"274f682e-723d-4e62-b771-3914deffbd29","name":"Skarpberghuken","dnt_cabin":false,"service_level":"emergency shelter","htgt":{"public_transport_available":false,"boat_transport_available":false,"car_all_year":false,"car_summer":false},"accessabilities":[],"facilities":[]},"geometry":{"type":"Point","coordinates":[12.2234796807499,60.5519815773032]}},{"type":"Feature","properties":{"id":"27a4d985-7ae4-4f67-8fc2-9a9614d5620f","name":"Fyrsteilene","dnt_cabin":false,"service_level":"no-service","htgt":{"public_transport_available":false,"boat_transport_available":true,"car_all_year":false,"car_summer":false},"accessabilities":[],"facilities":["fishing","swimming","220v","mobile coverage","boat","heater","rental","oven","booking"]},"geometry":{"type":"Point","coordinates":[10.59564,59.81681]}},{"type":"Feature","properties":{"id":"27ef2ed2-4d47-4757-bbba-4d01e0da02cb","name":"Græsberget grendehus","dnt_cabin":false,"service_level":"no-service","htgt":{"public_transport_available":false,"boat_transport_available":false,"car_all_year":true,"car_summer":false},"accessabilities":[],"facilities":["water","220v","tent site","mobile coverage","wood stove","fishing","heater","rental","oven"]},"geometry":{"type":"Point","coordinates":[12.3444829467682,60.3554563026993]}},{"type":"Feature","properties":{"id":"281dfac5-02a0-4f79-be18-54d8611a2759","name":"Svartvannshytta","dnt_cabin":true,"service_level":"no-service","htgt":{"public_transport_available":true,"boat_transport_available":false,"car_all_year":false,"car_summer":false},"accessabilities":[],"facilities":[]},"geometry":{"type":"Point","coordinates":[10.38983792,59.91934746]}},{"type":"Feature","properties":{"id":"2849a65a-6ce6-4d67-b434-7deaf2704363","name":"Skihytta under Goalsevarri","dnt_cabin":false,"service_level":"no-service (no beds)","htgt":{"public_transport_available":false,"boat_transport_available":false,"car_all_year":false,"car_summer":false},"accessabilities":[],"facilities":[]},"geometry":{"type":"Point","coordinates":[20.18306,69.56104]}},{"type":"Feature","properties":{"id":"285291c7-ce9a-4917-81c0-07e46e756ec3","name":"Friisvegen Turistsenter Måsåplassen","dnt_cabin":false,"service_level":"staffed","htgt":{"public_transport_available":false,"boat_transport_available":false,"car_all_year":false,"car_summer":false},"accessabilities":[],"facilities":[]},"geometry":{"type":"Point","coordinates":[10.26668,61.5591]}},{"type":"Feature","properties":{"id":"287cb8ca-a137-4362-931d-339be414ac08","name":"Kårdal fjellstove","dnt_cabin":false,"service_level":"staffed","htgt":{"public_transport_available":true,"boat_transport_available":false,"car_all_year":true,"car_summer":false},"accessabilities":[],"facilities":["wc","heater","drying room","food service","fireplace","credit card payment","booking","phone","oven","mobile coverage","shower","220v"]},"geometry":{"type":"Point","coordinates":[6.8915089,60.7017768]}},{"type":"Feature","properties":{"id":"28853430-832d-467b-b74d-f894be386a7f","name":"Messa Skorovatn","dnt_cabin":false,"service_level":"staffed","htgt":{"public_transport_available":false,"boat_transport_available":false,"car_all_year":false,"car_summer":false},"accessabilities":[],"facilities":["220v","water","phone"]},"geometry":{"type":"Point","coordinates":[13.107465,64.638348]}},{"type":"Feature","properties":{"id":"2894471b-ebdf-40b1-9111-d8ba10425ae7","name":"Gjælentunet","dnt_cabin":true,"service_level":"no-service","htgt":{"public_transport_available":true,"boat_transport_available":false,"car_all_year":true,"car_summer":false},"accessabilities":[],"facilities":["fishing","swimming","tent site","12v","boat","wood stove","mobile coverage","oven","rental","water","220v","heater"]},"geometry":{"type":"Point","coordinates":[14.4115783685982,67.1840747478506]}},{"type":"Feature","properties":{"id":"29100315-44ed-4380-80aa-93c55612d6f5","name":"Imingfjell Turistheim","dnt_cabin":false,"service_level":"staffed","htgt":{"public_transport_available":false,"boat_transport_available":false,"car_all_year":true,"car_summer":false},"accessabilities":[],"facilities":["fishing","drying room","credit card payment","220v","phone","heater","wc","food service","shower","rental","fireplace","water"]},"geometry":{"type":"Point","coordinates":[8.58558865447598,60.2328849584973]}},{"type":"Feature","properties":{"id":"295090f9-4dec-438c-adf1-f588e46eceea","name":"Bislingen (STENGT)","dnt_cabin":false,"service_level":"closed","htgt":{"public_transport_available":false,"boat_transport_available":false,"car_all_year":false,"car_summer":false},"accessabilities":[],"facilities":[]},"geometry":{"type":"Point","coordinates":[10.6067898629429,60.2297350200444]}},{"type":"Feature","properties":{"id":"2962b933-02ae-423e-849e-7658e20877f3","name":"Holmavatn","dnt_cabin":true,"service_level":"self-service","htgt":{"public_transport_available":false,"boat_transport_available":false,"car_all_year":false,"car_summer":false},"accessabilities":[],"facilities":["fishing","swimming","12v","tent site","wood stove","wc"]},"geometry":{"type":"Point","coordinates":[7.12524659454313,59.7058638522422]}},{"type":"Feature","properties":{"id":"2973173e-f816-4e72-93f4-c4228db11655","name":"Skåpet","dnt_cabin":true,"service_level":"self-service","htgt":{"public_transport_available":false,"boat_transport_available":false,"car_all_year":false,"car_summer":false},"accessabilities":[],"facilities":["swimming","oven","12v","wood stove","shower","sauna"]},"geometry":{"type":"Point","coordinates":[6.34244377,58.98725746]}},{"type":"Feature","properties":{"id":"29f0d41f-7f16-42ab-a1a6-39a53cdb3c5c","name":"Annekset, Trollsvann","dnt_cabin":true,"service_level":"no-service","htgt":{"public_transport_available":false,"boat_transport_available":false,"car_all_year":false,"car_summer":false},"accessabilities":[],"facilities":["fishing","swimming","wood stove","canoe"]},"geometry":{"type":"Point","coordinates":[10.0314,59.3581]}},{"type":"Feature","properties":{"id":"2a233b9f-d897-4ba0-b650-4571748c8354","name":"Hornsjø Høyfjellshotell","dnt_cabin":false,"service_level":"staffed","htgt":{"public_transport_available":false,"boat_transport_available":false,"car_all_year":true,"car_summer":false},"accessabilities":[],"facilities":["tent site","fireplace","canoe","boat","wc","credit card payment","shower","water","rental","drying room","phone","bicycle rentals","oven","mobile coverage","booking","220v","food service","sauna"]},"geometry":{"type":"Point","coordinates":[10.71793,61.2551616028128]}},{"type":"Feature","properties":{"id":"2a78d600-ed41-4396-b3ac-90c71140ee5f","name":"Memurubu Turisthytte","dnt_cabin":false,"service_level":"staffed","htgt":{"public_transport_available":true,"boat_transport_available":true,"car_all_year":false,"car_summer":false},"accessabilities":[],"facilities":["fishing","swimming","wc","water","220v","fireplace","tent site","credit card payment","heater","food service","phone","drying room","shower"]},"geometry":{"type":"Point","coordinates":[8.62950924413046,61.4906533982593]}},{"type":"Feature","properties":{"id":"2aaec334-9dac-4bee-ba06-f1d7b3c7a4e4","name":"Stordalsbu","dnt_cabin":true,"service_level":"self-service","htgt":{"public_transport_available":false,"boat_transport_available":false,"car_all_year":false,"car_summer":false},"accessabilities":[],"facilities":["fishing","wood stove"]},"geometry":{"type":"Point","coordinates":[8.08154791468515,60.0601575672526]}},{"type":"Feature","properties":{"id":"2abb1b6c-bf2d-471b-b0a1-1ed6f935f371","name":"Kiellandbu","dnt_cabin":true,"service_level":"no-service","htgt":{"public_transport_available":false,"boat_transport_available":false,"car_all_year":false,"car_summer":false},"accessabilities":[],"facilities":["wood stove","mobile coverage"]},"geometry":{"type":"Point","coordinates":[6.20127818852508,60.5146024810954]}},{"type":"Feature","properties":{"id":"2b26dfde-f063-4510-9c14-73c83d3f279c","name":"Abisko Turiststation","dnt_cabin":false,"service_level":"staffed","htgt":{"public_transport_available":true,"boat_transport_available":false,"car_all_year":true,"car_summer":false},"accessabilities":[],"facilities":["fishing","swimming","heater","food service","credit card payment","water","phone","wc","mobile coverage","shower","drying room","220v","tent site","sauna"]},"geometry":{"type":"Point","coordinates":[18.78401477,68.35827592]}},{"type":"Feature","properties":{"id":"2b36a0cc-1303-453e-bc4a-d728c270ca96","name":"Storgrytdalseter","dnt_cabin":true,"service_level":"self-service","htgt":{"public_transport_available":false,"boat_transport_available":false,"car_all_year":false,"car_summer":false},"accessabilities":[],"facilities":["wood stove"]},"geometry":{"type":"Point","coordinates":[10.3695250635268,61.9124268841079]}},{"type":"Feature","properties":{"id":"2b742db8-8e40-412f-aceb-44b7df6e06bd","name":"Baunehytten","dnt_cabin":false,"service_level":"food service","htgt":{"public_transport_available":false,"boat_transport_available":false,"car_all_year":false,"car_summer":false},"accessabilities":[],"facilities":["wood stove","wc","food service","boat","12v"]},"geometry":{"type":"Point","coordinates":[5.38888,60.36161]}},{"type":"Feature","properties":{"id":"2c1048de-a983-4f51-a593-690ce710df3d","name":"Vestfjellhytta","dnt_cabin":true,"service_level":"self-service","htgt":{"public_transport_available":false,"boat_transport_available":false,"car_all_year":false,"car_summer":false},"accessabilities":[],"facilities":["fishing","wc","drying room","12v","wood stove","water","canoe"]},"geometry":{"type":"Point","coordinates":[9.76034872,61.25954419]}},{"type":"Feature","properties":{"id":"2c70c82b-f174-4cfd-8795-befee1fb6d22","name":"Tyinstølen Turisthytte","dnt_cabin":false,"service_level":"staffed","htgt":{"public_transport_available":false,"boat_transport_available":false,"car_all_year":false,"car_summer":false},"accessabilities":[],"facilities":[]},"geometry":{"type":"Point","coordinates":[8.20714758772344,61.25141504877]}},{"type":"Feature","properties":{"id":"2c7b4630-b8dc-44b0-aa71-34765f1750e9","name":"Rogsjøhuken","dnt_cabin":false,"service_level":"emergency shelter","htgt":{"public_transport_available":false,"boat_transport_available":false,"car_all_year":false,"car_summer":false},"accessabilities":[],"facilities":[]},"geometry":{"type":"Point","coordinates":[12.1846212939427,60.7573508103902]}},{"type":"Feature","properties":{"id":"2c84fbd7-1829-4937-afa4-3ffdb3569064","name":"Breidablik","dnt_cabin":true,"service_level":"no-service","htgt":{"public_transport_available":false,"boat_transport_available":false,"car_all_year":false,"car_summer":false},"accessabilities":[],"facilities":["wood stove","drying room","mobile coverage"]},"geometry":{"type":"Point","coordinates":[6.12568823165929,60.4658629221738]}},{"type":"Feature","properties":{"id":"2c9631b4-f2d5-4bc2-bc3e-ec70d9f22668","name":"Storerikvollen","dnt_cabin":true,"service_level":"staffed","htgt":{"public_transport_available":false,"boat_transport_available":false,"car_all_year":false,"car_summer":true},"accessabilities":[],"facilities":["drying room","water","credit card payment","fireplace","heater","rental","food service","shower","220v"]},"geometry":{"type":"Point","coordinates":[11.9829976059092,63.1116333616318]}},{"type":"Feature","properties":{"id":"2ce98e5c-daa8-41c0-ae22-2ce7ccaf5222","name":"Grotli Høyfjellshotel","dnt_cabin":false,"service_level":"staffed","htgt":{"public_transport_available":true,"boat_transport_available":false,"car_all_year":true,"car_summer":false},"accessabilities":[],"facilities":["fishing","mobile coverage","water","heater","fireplace","220v","phone","credit card payment","shower","wc","food service"]},"geometry":{"type":"Point","coordinates":[7.63303613704338,62.0124531274335]}},{"type":"Feature","properties":{"id":"2ceca100-595b-4ce1-be9a-2268f4c5dccc","name":"Råbjørnhytta","dnt_cabin":true,"service_level":"no-service","htgt":{"public_transport_available":false,"boat_transport_available":false,"car_all_year":false,"car_summer":false},"accessabilities":[],"facilities":["fishing","swimming","tent site","boat","wood stove"]},"geometry":{"type":"Point","coordinates":[10.8549533378609,60.2361528591249]}},{"type":"Feature","properties":{"id":"2d279c24-d3ef-485d-aacb-8d8d77d0fb39","name":"Breidablikk","dnt_cabin":true,"service_level":"no-service","htgt":{"public_transport_available":false,"boat_transport_available":false,"car_all_year":false,"car_summer":false},"accessabilities":[],"facilities":["wood stove","mobile coverage"]},"geometry":{"type":"Point","coordinates":[6.34298408468033,60.090860918104]}},{"type":"Feature","properties":{"id":"2d3293c0-22b1-4bf7-ba6a-6a0d36413d4e","name":"Nipebu","dnt_cabin":true,"service_level":"self-service","htgt":{"public_transport_available":false,"boat_transport_available":false,"car_all_year":false,"car_summer":false},"accessabilities":[],"facilities":["fishing","canoe","boat"]},"geometry":{"type":"Point","coordinates":[5.33567644153386,61.4017732530562]}},{"type":"Feature","properties":{"id":"2d63b640-099e-47d2-8b4b-e64b8678775a","name":"Sandvatn","dnt_cabin":true,"service_level":"no-service","htgt":{"public_transport_available":false,"boat_transport_available":false,"car_all_year":false,"car_summer":false},"accessabilities":[],"facilities":["fishing","swimming","wood stove","drying room","12v","booking"]},"geometry":{"type":"Point","coordinates":[6.65067775292643,58.953810604794]}},{"type":"Feature","properties":{"id":"2de36634-ce54-46f9-94cc-fe9573a554a7","name":"Abiskojaure Fjällstuga","dnt_cabin":false,"service_level":"self-service","htgt":{"public_transport_available":false,"boat_transport_available":false,"car_all_year":false,"car_summer":false},"accessabilities":[],"facilities":["sauna","phone"]},"geometry":{"type":"Point","coordinates":[18.59092791,68.28623645]}},{"type":"Feature","properties":{"id":"2dea043f-f0bd-428d-8eae-e51af664a723","name":"Såmmarlappa Fjällstuga","dnt_cabin":false,"service_level":"self-service","htgt":{"public_transport_available":false,"boat_transport_available":false,"car_all_year":false,"car_summer":false},"accessabilities":[],"facilities":["phone"]},"geometry":{"type":"Point","coordinates":[17.15780522,67.06773193]}},{"type":"Feature","properties":{"id":"2dfc5869-c542-4164-ad4e-d9dddfe2c4b2","name":"Kjennsvasshytta","dnt_cabin":true,"service_level":"no-service","htgt":{"public_transport_available":false,"boat_transport_available":false,"car_all_year":false,"car_summer":true},"accessabilities":[],"facilities":["fishing","swimming","drying room","boat","heater","fireplace","water","wood stove","oven","tent site","sauna","220v"]},"geometry":{"type":"Point","coordinates":[14.2615409114161,66.0654227567682]}},{"type":"Feature","properties":{"id":"2e09eb43-50a4-43ce-9f1f-9582bbadbe06","name":"Sinober Sportsstue","dnt_cabin":false,"service_level":"food service","htgt":{"public_transport_available":false,"boat_transport_available":false,"car_all_year":false,"car_summer":false},"accessabilities":[],"facilities":["phone","food service","water","220v"]},"geometry":{"type":"Point","coordinates":[10.8403,60.0254]}},{"type":"Feature","properties":{"id":"2e137d4d-20f7-4def-b8ac-67d84ac58a3f","name":"Feskarbu","dnt_cabin":true,"service_level":"no-service","htgt":{"public_transport_available":false,"boat_transport_available":false,"car_all_year":false,"car_summer":false},"accessabilities":[],"facilities":["fishing","swimming","boat","wood stove"]},"geometry":{"type":"Point","coordinates":[7.40911368012351,62.8225968063033]}},{"type":"Feature","properties":{"id":"2e49405f-b9d8-4d82-b957-0a20b8798b9f","name":"Vesterås ","dnt_cabin":true,"service_level":"no-service","htgt":{"public_transport_available":false,"boat_transport_available":false,"car_all_year":false,"car_summer":false},"accessabilities":[],"facilities":["mobile coverage","wood stove"]},"geometry":{"type":"Point","coordinates":[10.8479883,60.5707292]}},{"type":"Feature","properties":{"id":"2e60942e-bcfe-4732-91a6-20bbcfdbb3dd","name":"Juskjølkoia","dnt_cabin":true,"service_level":"no-service","htgt":{"public_transport_available":false,"boat_transport_available":false,"car_all_year":false,"car_summer":false},"accessabilities":[],"facilities":["wood stove"]},"geometry":{"type":"Point","coordinates":[12.011082,61.016551]}},{"type":"Feature","properties":{"id":"2e6c0269-910a-40eb-b131-4be0e4af66eb","name":"Butikken","dnt_cabin":false,"service_level":"no-service","htgt":{"public_transport_available":false,"boat_transport_available":false,"car_all_year":false,"car_summer":false},"accessabilities":[],"facilities":["fishing","swimming","water","boat","rental","220v","shower","wc","mobile coverage"]},"geometry":{"type":"Point","coordinates":[10.54147,59.85186]}},{"type":"Feature","properties":{"id":"2ed2c959-eb46-4c11-97df-7981b248b6da","name":"Haslumseter kapell","dnt_cabin":false,"service_level":"food service","htgt":{"public_transport_available":false,"boat_transport_available":false,"car_all_year":false,"car_summer":false},"accessabilities":[],"facilities":["rental","food service"]},"geometry":{"type":"Point","coordinates":[10.5432,59.9742]}},{"type":"Feature","properties":{"id":"2f580c93-80c1-423d-b0a2-08c10c288e70","name":"Kopmajoki","dnt_cabin":false,"service_level":"emergency shelter","htgt":{"public_transport_available":false,"boat_transport_available":false,"car_all_year":false,"car_summer":false},"accessabilities":[],"facilities":["wood stove"]},"geometry":{"type":"Point","coordinates":[21.506039,69.271456]}},{"type":"Feature","properties":{"id":"2f58377e-cd58-42f6-9954-21b776925e39","name":"Alesjaure Fjällstuga","dnt_cabin":false,"service_level":"self-service","htgt":{"public_transport_available":false,"boat_transport_available":false,"car_all_year":false,"car_summer":false},"accessabilities":[],"facilities":["phone","sauna"]},"geometry":{"type":"Point","coordinates":[18.41463947,68.13656533]}},{"type":"Feature","properties":{"id":"2f99522d-cc5f-4493-a1d2-1ea4924372d6","name":"Kolstad gard","dnt_cabin":false,"service_level":"staffed","htgt":{"public_transport_available":false,"boat_transport_available":false,"car_all_year":false,"car_summer":false},"accessabilities":[],"facilities":[]},"geometry":{"type":"Point","coordinates":[8.837814331,62.114361845]}},{"type":"Feature","properties":{"id":"2faf91f3-e3c1-444b-80ed-e13baf0ef4d3","name":"Østerbø Fjellstove","dnt_cabin":false,"service_level":"staffed","htgt":{"public_transport_available":true,"boat_transport_available":false,"car_all_year":false,"car_summer":true},"accessabilities":[],"facilities":["water","220v","heater","credit card payment","sauna","wc","drying room","boat","mobile coverage","tent site","fireplace","food service","shower"]},"geometry":{"type":"Point","coordinates":[7.50650426308056,60.8273068981815]}},{"type":"Feature","properties":{"id":"3003784f-e125-48a5-939f-85638e431f39","name":"Saga Trollheimen Hotel","dnt_cabin":false,"service_level":"staffed","htgt":{"public_transport_available":false,"boat_transport_available":false,"car_all_year":false,"car_summer":false},"accessabilities":[],"facilities":[]},"geometry":{"type":"Point","coordinates":[9.19659,63.04886]}},{"type":"Feature","properties":{"id":"3026c100-b294-4699-83b9-a56ffc19d269","name":"Kårsavagge Fjällstuga","dnt_cabin":false,"service_level":"no-service","htgt":{"public_transport_available":false,"boat_transport_available":false,"car_all_year":false,"car_summer":false},